country,state,city,station,last_update,latitude,longitude,pollutant_id,pollutant_min,pollutant_max,pollutant_avg
India,Bihar,Muzaffarpur,"MIT-Daudpur Kothi, Muzaffarpur - BSPCB","27-04-2025 21:00:00",26.1403345,85.3650192,NO2,9,16,14
India,Bihar,Muzaffarpur,"MIT-Daudpur Kothi, Muzaffarpur - BSPCB","27-04-2025 21:00:00",26.1403345,85.3650192,NH3,2,3,3
India,Bihar,Muzaffarpur,"MIT-Daudpur Kothi, Muzaffarpur - BSPCB","27-04-2025 21:00:00",26.1403345,85.3650192,SO2,4,6,5
India,Bihar,Muzaffarpur,"Muzaffarpur Collectorate, Muzaffarpur - BSPCB","27-04-2025 21:00:00",26.1209,85.3647,PM2.5,22,65,36
India,Bihar,Patna,"DRM Office Danapur, Patna - BSPCB","27-04-2025 21:00:00",25.586562,85.043586,PM10,35,409,179
India,Bihar,Patna,"DRM Office Danapur, Patna - BSPCB","27-04-2025 21:00:00",25.586562,85.043586,NO2,27,35,32
India,Bihar,Patna,"DRM Office Danapur, Patna - BSPCB","27-04-2025 21:00:00",25.586562,85.043586,SO2,3,24,11
India,Bihar,Patna,"Govt. High School Shikarpur, Patna - BSPCB","27-04-2025 21:00:00",25.592539,85.227158,PM10,35,237,152
India,Bihar,Patna,"Govt. High School Shikarpur, Patna - BSPCB","27-04-2025 21:00:00",25.592539,85.227158,CO,18,116,40
India,Bihar,Patna,"Muradpur, Patna - BSPCB","27-04-2025 21:00:00",25.619651,85.147382,PM10,96,417,210
India,Bihar,Kishanganj,"SDM Office_Khagra, Kishanganj - BSPCB","27-04-2025 21:00:00",26.0881305,87.93840336,NH3,2,3,3
India,Bihar,Kishanganj,"SDM Office_Khagra, Kishanganj - BSPCB","27-04-2025 21:00:00",26.0881305,87.93840336,OZONE,16,23,18
India,Bihar,Manguraha,"Forest Rest House, Manguraha - BSPCB","27-04-2025 21:00:00",27.308328,84.531742,NO2,3,7,5
India,Bihar,Manguraha,"Forest Rest House, Manguraha - BSPCB","27-04-2025 21:00:00",27.308328,84.531742,NH3,1,1,1
India,Bihar,Manguraha,"Forest Rest House, Manguraha - BSPCB","27-04-2025 21:00:00",27.308328,84.531742,CO,15,122,77
India,Bihar,Manguraha,"Forest Rest House, Manguraha - BSPCB","27-04-2025 21:00:00",27.308328,84.531742,OZONE,8,48,38
India,Bihar,Motihari,"Gandak Colony, Motihari - BSPCB","27-04-2025 21:00:00",26.63086,84.90051,NO2,17,26,23
India,Bihar,Munger,"Town Hall, Munger - BSPCB","27-04-2025 21:00:00",25.376776,86.471523,PM2.5,32,92,59
India,Bihar,Munger,"Town Hall, Munger - BSPCB","27-04-2025 21:00:00",25.376776,86.471523,NH3,5,8,7
India,Bihar,Muzaffarpur,"Buddha Colony, Muzaffarpur - BSPCB","27-04-2025 21:00:00",26.11442,85.39813,NO2,3,15,7
India,Assam,Sivasagar,"Girls College, Sivasagar - PCBA","27-04-2025 21:00:00",26.987634,94.636574,OZONE,1,17,3
India,Bihar,Araria,"Kharahiya Basti, Araria - BSPCB","27-04-2025 21:00:00",26.146529,87.454184,PM2.5,NA,NA,NA
India,Bihar,Araria,"Kharahiya Basti, Araria - BSPCB","27-04-2025 21:00:00",26.146529,87.454184,CO,26,70,43
India,Bihar,Arrah,"New DM Office, Arrah - BSPCB","27-04-2025 21:00:00",25.5626095,84.663264,PM10,NA,NA,NA
India,Bihar,Arrah,"New DM Office, Arrah - BSPCB","27-04-2025 21:00:00",25.5626095,84.663264,NH3,NA,NA,NA
India,Bihar,Arrah,"New DM Office, Arrah - BSPCB","27-04-2025 21:00:00",25.5626095,84.663264,SO2,NA,NA,NA
India,Bihar,Arrah,"New DM Office, Arrah - BSPCB","27-04-2025 21:00:00",25.5626095,84.663264,OZONE,2,104,56
India,Bihar,Aurangabad,"Gurdeo Nagar, Aurangabad - BSPCB","27-04-2025 21:00:00",24.75746,84.366208,PM10,48,291,146
India,Bihar,Begusarai,"Lohiyanagar, Begusarai - BSPCB","27-04-2025 21:00:00",25.42742023,86.13886079,PM2.5,55,140,82
India,Bihar,Begusarai,"Lohiyanagar, Begusarai - BSPCB","27-04-2025 21:00:00",25.42742023,86.13886079,OZONE,6,12,9
India,Andhra_Pradesh,Anantapur,"Gulzarpet, Anantapur - APPCB","27-04-2025 21:00:00",14.675886,77.593027,NH3,NA,NA,NA
India,Andhra_Pradesh,Anantapur,"Gulzarpet, Anantapur - APPCB","27-04-2025 21:00:00",14.675886,77.593027,OZONE,17,35,32
India,Andhra_Pradesh,Chittoor,"Gangineni Cheruvu, Chittoor - APPCB","27-04-2025 21:00:00",13.204880,79.097889,SO2,NA,NA,NA
India,Andhra_Pradesh,Kadapa,"Yerramukkapalli, Kadapa - APPCB","27-04-2025 21:00:00",14.465052,78.824187,PM2.5,44,66,53
India,Andhra_Pradesh,Kadapa,"Yerramukkapalli, Kadapa - APPCB","27-04-2025 21:00:00",14.465052,78.824187,CO,36,38,37
India,Andhra_Pradesh,Tirumala,"Toll Gate, Tirumala - APPCB (Formerly known as Tirumala, Tirupati - APPCB)","27-04-2025 21:00:00",13.67,79.35,CO,6,72,26
India,Assam,Nagaon,"Christianpatty, Nagaon - PCBA","27-04-2025 21:00:00",26.349082,92.68449,PM2.5,NA,NA,NA
India,Assam,Nagaon,"Christianpatty, Nagaon - PCBA","27-04-2025 21:00:00",26.349082,92.68449,PM10,NA,NA,NA
India,Assam,Nagaon,"Christianpatty, Nagaon - PCBA","27-04-2025 21:00:00",26.349082,92.68449,NH3,4,4,4
India,Assam,Nagaon,"Christianpatty, Nagaon - PCBA","27-04-2025 21:00:00",26.349082,92.68449,CO,14,62,40
India,Assam,Nagaon,"Christianpatty, Nagaon - PCBA","27-04-2025 21:00:00",26.349082,92.68449,OZONE,21,35,25
India,Assam,Silchar,"Tarapur, Silchar - PCBA","27-04-2025 21:00:00",24.82827,92.79525,NH3,1,1,1
India,Assam,Sivasagar,"Girls College, Sivasagar - PCBA","27-04-2025 21:00:00",26.987634,94.636574,PM2.5,7,48,28
India,Andhra_Pradesh,Tirupati,"Vaikuntapuram, Tirupati - APPCB","27-04-2025 21:00:00",13.615387,79.409230,CO,8,15,14
India,Andhra_Pradesh,Vijayawada,"Kanuru, Vijayawada - APPCB","27-04-2025 21:00:00",16.486692,80.699436,PM10,NA,NA,NA
India,Andhra_Pradesh,Vijayawada,"Kanuru, Vijayawada - APPCB","27-04-2025 21:00:00",16.486692,80.699436,CO,32,42,35
India,Andhra_Pradesh,Vijayawada,"Rajiv Gandhi Park, Vijayawada - APPCB","27-04-2025 21:00:00",16.509717,80.612222,NO2,28,45,36
India,Andhra_Pradesh,Vijayawada,"Rajiv Nagar, Vijayawada - APPCB","27-04-2025 21:00:00",16.554731,80.649110,PM10,47,73,56
India,Andhra_Pradesh,Vijayawada,"Rajiv Nagar, Vijayawada - APPCB","27-04-2025 21:00:00",16.554731,80.649110,CO,35,43,39
India,Bihar,Bettiah,"Kamalnath Nagar, Bettiah - BSPCB","27-04-2025 21:00:00",26.80365,84.51954,NO2,28,29,28
India,Bihar,Bhagalpur,"DM Office_Kachari Chowk, Bhagalpur - BSPCB","27-04-2025 21:00:00",25.251013,86.989001,NH3,2,2,2
India,Bihar,Bhagalpur,"Mayaganj, Bhagalpur - BSPCB","27-04-2025 21:00:00",25.265194,87.012947,SO2,6,43,22
India,Bihar,Buxar,"Charitra Van, Buxar - BSPCB","27-04-2025 21:00:00",25.567520,83.966379,PM10,59,193,107
India,Bihar,Buxar,"Charitra Van, Buxar - BSPCB","27-04-2025 21:00:00",25.567520,83.966379,NO2,4,5,5
India,Andhra_Pradesh,Visakhapatnam,"GVM Corporation, Visakhapatnam - APPCB","27-04-2025 21:00:00",17.72,83.3,NO2,20,30,24
India,Andhra_Pradesh,Visakhapatnam,"GVM Corporation, Visakhapatnam - APPCB","27-04-2025 21:00:00",17.72,83.3,NH3,1,2,1
India,Andhra_Pradesh,Visakhapatnam,"GVM Corporation, Visakhapatnam - APPCB","27-04-2025 21:00:00",17.72,83.3,OZONE,8,11,10
India,Assam,Guwahati,"IITG, Guwahati - PCBA","27-04-2025 21:00:00",26.2028636,91.70046436,OZONE,1,86,48
India,Assam,Guwahati,"LGBI Airport, Guwahati - PCBA","27-04-2025 21:00:00",26.10887,91.589544,PM10,NA,NA,NA
India,Bihar,Buxar,"Charitra Van, Buxar - BSPCB","27-04-2025 21:00:00",25.567520,83.966379,OZONE,2,18,8
India,Bihar,Gaya,"Collectorate, Gaya - BSPCB","27-04-2025 21:00:00",24.7955,84.9994,OZONE,NA,NA,NA
India,Bihar,Gaya,"Kareemganj, Gaya - BSPCB","27-04-2025 21:00:00",24.792403,84.992416,NO2,3,6,4
India,Bihar,Gaya,"Kareemganj, Gaya - BSPCB","27-04-2025 21:00:00",24.792403,84.992416,CO,7,52,43
India,Bihar,Gaya,"SFTI Kusdihra, Gaya - BSPCB","27-04-2025 21:00:00",24.762518,84.982348,NO2,16,20,18
India,"Andaman and Nicobar","Sri Vijaya Puram","Police Line, Sri Vijaya Puram - ANPCC","27-04-2025 21:00:00",11.654054,92.734055,NH3,NA,NA,NA
India,Andhra_Pradesh,Amaravati,"Secretariat, Amaravati - APPCB","27-04-2025 21:00:00",16.5150833,80.5181667,PM2.5,NA,NA,NA
India,Chhattisgarh,Bhilai,"Hathkhoj, Bhilai - CECB","27-04-2025 21:00:00",21.224231,81.408350,OZONE,23,33,30
India,Chhattisgarh,Bilaspur,"Mangala, Bilaspur - NTPC","27-04-2025 21:00:00",22.08815,82.13737,CO,16,31,29
India,Chhattisgarh,Chhal,"Nawapara SECL Colony, Chhal - CECB","27-04-2025 21:00:00",22.118125,83.140608,SO2,6,7,6
India,Chhattisgarh,Chhal,"Nawapara SECL Colony, Chhal - CECB","27-04-2025 21:00:00",22.118125,83.140608,OZONE,21,78,77
India,Chhattisgarh,Korba,"Rampur, Korba - CECB","27-04-2025 21:00:00",22.368195,82.746431,NH3,1,1,1
India,Chhattisgarh,Korba,"Rampur, Korba - CECB","27-04-2025 21:00:00",22.368195,82.746431,CO,30,39,34
India,Chhattisgarh,Korba,"Urja Nagar, Korba - CECB","27-04-2025 21:00:00",22.348441,82.549611,SO2,NA,NA,NA
India,Chhattisgarh,Korba,"Urja Nagar, Korba - CECB","27-04-2025 21:00:00",22.348441,82.549611,CO,14,33,20
India,Chhattisgarh,Kunjemura,"OP Jindal School, Kunjemura - CECB","27-04-2025 21:00:00",22.126650,83.483212,PM2.5,10,103,38
India,Chhattisgarh,Kunjemura,"OP Jindal School, Kunjemura - CECB","27-04-2025 21:00:00",22.126650,83.483212,NH3,2,2,2
India,Chhattisgarh,Raipur,"AIIMS, Raipur - CECB","27-04-2025 21:00:00",21.258815,81.578979,PM10,17,120,43
India,Chhattisgarh,Raipur,"Krishak Nagar, Raipur - CECB","27-04-2025 21:00:00",21.237755,81.705301,PM2.5,15,55,28
India,Chhattisgarh,Raipur,"Krishak Nagar, Raipur - CECB","27-04-2025 21:00:00",21.237755,81.705301,CO,20,26,23
India,Chhattisgarh,Raipur,"Siltara Phase-II, Raipur - CECB","27-04-2025 21:00:00",21.371751,81.664929,PM2.5,NA,NA,NA
India,Chhattisgarh,Raipur,"Siltara Phase-II, Raipur - CECB","27-04-2025 21:00:00",21.371751,81.664929,PM10,NA,NA,NA
India,Delhi,Delhi,"Alipur, Delhi - DPCC","27-04-2025 21:00:00",28.815329,77.153010,PM2.5,87,345,218
India,Delhi,Delhi,"Alipur, Delhi - DPCC","27-04-2025 21:00:00",28.815329,77.153010,NH3,11,14,12
India,Delhi,Delhi,"Alipur, Delhi - DPCC","27-04-2025 21:00:00",28.815329,77.153010,CO,7,105,20
India,Chandigarh,Chandigarh,"Sector 22, Chandigarh - CPCC","27-04-2025 21:00:00",30.735567,76.775714,CO,40,100,54
India,Chandigarh,Chandigarh,"Sector 22, Chandigarh - CPCC","27-04-2025 21:00:00",30.735567,76.775714,OZONE,10,192,147
India,Chandigarh,Chandigarh,"Sector-25, Chandigarh - CPCC","27-04-2025 21:00:00",30.751462,76.762879,PM10,73,111,98
India,Chandigarh,Chandigarh,"Sector-25, Chandigarh - CPCC","27-04-2025 21:00:00",30.751462,76.762879,NH3,22,31,26
India,Chandigarh,Chandigarh,"Sector-53, Chandigarh - CPCC","27-04-2025 21:00:00",30.719859,76.738637,OZONE,2,131,84
India,Chhattisgarh,Bhilai,"32Bungalows, Bhilai - CECB","27-04-2025 21:00:00",21.194815,81.314770,CO,12,32,16
India,Chhattisgarh,Bhilai,"Hathkhoj, Bhilai - CECB","27-04-2025 21:00:00",21.224231,81.408350,PM2.5,12,48,30
India,Bihar,Saharsa,"Police Line, Saharsa - BSPCB","27-04-2025 21:00:00",25.892357,86.590325,PM10,51,133,82
India,Bihar,Saharsa,"Police Line, Saharsa - BSPCB","27-04-2025 21:00:00",25.892357,86.590325,CO,2,66,47
India,Bihar,Samastipur,"DM Office_Kasipur, Samastipur - BSPCB","27-04-2025 21:00:00",25.859655,85.77944,PM10,NA,NA,NA
India,Bihar,Sasaram,"Dada Peer, Sasaram - BSPCB","27-04-2025 21:00:00",24.952822,84.002396,PM10,37,142,86
India,Bihar,Sasaram,"Dada Peer, Sasaram - BSPCB","27-04-2025 21:00:00",24.952822,84.002396,NO2,3,8,5
India,Bihar,Siwan,"Chitragupta Nagar, Siwan - BSPCB","27-04-2025 21:00:00",26.2271665,84.3570427,OZONE,1,184,52
India,Bihar,Patna,"Muradpur, Patna - BSPCB","27-04-2025 21:00:00",25.619651,85.147382,OZONE,6,39,30
India,Bihar,Patna,"Rajbansi Nagar, Patna - BSPCB","27-04-2025 21:00:00",25.599486,85.113666,PM2.5,63,232,139
India,Bihar,Purnia,"Mariam Nagar, Purnia - BSPCB","27-04-2025 21:00:00",25.366336,87.117468,CO,28,88,58
India,Bihar,Rajgir,"Dangi Tola, Rajgir - BSPCB","27-04-2025 21:00:00",25.03280,85.41948,PM2.5,40,157,72
India,Bihar,Rajgir,"Dangi Tola, Rajgir - BSPCB","27-04-2025 21:00:00",25.03280,85.41948,PM10,63,169,102
India,Bihar,Rajgir,"Dangi Tola, Rajgir - BSPCB","27-04-2025 21:00:00",25.03280,85.41948,NH3,2,3,2
India,Delhi,Delhi,"Anand Vihar, Delhi - DPCC","27-04-2025 21:00:00",28.647622,77.3158090,PM2.5,58,353,205
India,Delhi,Delhi,"Anand Vihar, Delhi - DPCC","27-04-2025 21:00:00",28.647622,77.3158090,NH3,3,15,8
India,Delhi,Delhi,"Anand Vihar, Delhi - DPCC","27-04-2025 21:00:00",28.647622,77.3158090,SO2,7,25,13
India,Delhi,Delhi,"Anand Vihar, Delhi - DPCC","27-04-2025 21:00:00",28.647622,77.3158090,CO,40,110,66
India,Delhi,Delhi,"Ashok Vihar, Delhi - DPCC","27-04-2025 21:00:00",28.695381,77.181665,NO2,19,152,57
India,Delhi,Delhi,"Aya Nagar, Delhi - IMD","27-04-2025 21:00:00",28.4706914,77.1099364,PM10,169,500,311
India,Delhi,Delhi,"Aya Nagar, Delhi - IMD","27-04-2025 21:00:00",28.4706914,77.1099364,CO,37,102,56
India,Delhi,Delhi,"Chandni Chowk, Delhi - IITM","27-04-2025 21:00:00",28.656756,77.227234,PM2.5,NA,NA,NA
India,Delhi,Delhi,"Chandni Chowk, Delhi - IITM","27-04-2025 21:00:00",28.656756,77.227234,CO,NA,NA,NA
India,Delhi,Delhi,"DTU, Delhi - CPCB","27-04-2025 21:00:00",28.7500499,77.1112615,PM2.5,48,247,126
India,Delhi,Delhi,"Dr. Karni Singh Shooting Range, Delhi - DPCC","27-04-2025 21:00:00",28.498571,77.264840,OZONE,21,178,139
India,Delhi,Delhi,"IGI Airport (T3), Delhi - IMD","27-04-2025 21:00:00",28.5627763,77.1180053,CO,30,56,34
India,Delhi,Delhi,"ITO, Delhi - CPCB","27-04-2025 21:00:00",28.628624,77.241060,SO2,1,26,9
India,Delhi,Delhi,"ITO, Delhi - CPCB","27-04-2025 21:00:00",28.628624,77.241060,CO,26,121,54
India,Delhi,Delhi,"Jahangirpuri, Delhi - DPCC","27-04-2025 21:00:00",28.732820,77.170633,OZONE,1,258,146
India,Delhi,Delhi,"Jawaharlal Nehru Stadium, Delhi - DPCC","27-04-2025 21:00:00",28.580280,77.233829,PM2.5,39,108,63
India,Delhi,Delhi,"Lodhi Road, Delhi - IITM","27-04-2025 21:00:00",28.588333,77.221667,NO2,21,247,105
India,Delhi,Delhi,"Major Dhyan Chand National Stadium, Delhi - DPCC","27-04-2025 21:00:00",28.611281,77.237738,NO2,14,185,85
India,Delhi,Delhi,"Mandir Marg, Delhi - DPCC","27-04-2025 21:00:00",28.636429,77.201067,CO,7,36,18
India,Delhi,Delhi,"Mundka, Delhi - DPCC","27-04-2025 21:00:00",28.684678,77.076574,NO2,41,128,69
India,Delhi,Delhi,"Najafgarh, Delhi - DPCC","27-04-2025 21:00:00",28.570173,76.933762,PM10,123,401,204
India,Delhi,Delhi,"Sri Aurobindo Marg, Delhi - DPCC","27-04-2025 21:00:00",28.531346,77.190156,SO2,10,13,12
India,Delhi,Delhi,"Sri Aurobindo Marg, Delhi - DPCC","27-04-2025 21:00:00",28.531346,77.190156,OZONE,2,169,110
India,Delhi,Delhi,"Vivek Vihar, Delhi - DPCC","27-04-2025 21:00:00",28.672342,77.315260,NO2,17,154,65
India,Delhi,Delhi,"Wazirpur, Delhi - DPCC","27-04-2025 21:00:00",28.699793,77.165453,PM10,169,500,308
India,Delhi,Delhi,"Wazirpur, Delhi - DPCC","27-04-2025 21:00:00",28.699793,77.165453,SO2,19,39,28
India,Gujarat,Ahmedabad,"Gyaspur, Ahmedabad - IITM","27-04-2025 21:00:00",22.977134,72.553024,PM2.5,111,332,196
India,Gujarat,Ahmedabad,"Gyaspur, Ahmedabad - IITM","27-04-2025 21:00:00",22.977134,72.553024,NO2,14,88,32
India,Gujarat,Gandhinagar,"Sector-10, Gandhinagar - GPCB","27-04-2025 21:00:00",23.221714,72.654328,PM2.5,29,51,41
India,Gujarat,Gandhinagar,"Sector-10, Gandhinagar - GPCB","27-04-2025 21:00:00",23.221714,72.654328,NO2,16,17,17
India,Haryana,Gurugram,"NISE Gwal Pahari, Gurugram - IMD","27-04-2025 21:00:00",28.422681,77.148944,NO2,8,61,28
India,"Himachal Pradesh",Baddi,"HIMUDA Complex Phase-1, Baddi - HPPCB","27-04-2025 21:00:00",30.943887,76.801991,NO2,7,111,24
India,"Himachal Pradesh",Baddi,"HIMUDA Complex Phase-1, Baddi - HPPCB","27-04-2025 21:00:00",30.943887,76.801991,NH3,2,5,3
India,"Himachal Pradesh",Baddi,"HIMUDA Complex Phase-1, Baddi - HPPCB","27-04-2025 21:00:00",30.943887,76.801991,CO,38,100,48
India,Gujarat,Ahmedabad,"SVPI Airport Hansol, Ahmedabad - IITM","27-04-2025 21:00:00",23.076793,72.627874,CO,22,70,33
India,Gujarat,Ahmedabad,"Sardar Vallabhbhai Patel Stadium, Ahmedabad - IITM","27-04-2025 21:00:00",23.043070,72.562968,SO2,17,102,37
India,Gujarat,Ahmedabad,"Sardar Vallabhbhai Patel Stadium, Ahmedabad - IITM","27-04-2025 21:00:00",23.043070,72.562968,OZONE,14,95,62
India,Gujarat,Ankleshwar,"GIDC, Ankleshwar - GPCB","27-04-2025 21:00:00",21.613267,73.010555,OZONE,42,43,43
India,Gujarat,Gandhinagar,"IIPHG Lekawada, Gandhinagar - IITM","27-04-2025 21:00:00",23.243639,72.68994,SO2,7,97,29
India,Delhi,Delhi,"Narela, Delhi - DPCC","27-04-2025 21:00:00",28.822836,77.101981,PM10,146,407,259
India,Delhi,Delhi,"Narela, Delhi - DPCC","27-04-2025 21:00:00",28.822836,77.101981,OZONE,1,62,41
India,Delhi,Delhi,"North Campus, DU, Delhi - IMD","27-04-2025 21:00:00",28.6573814,77.1585447,PM2.5,68,310,168
India,Delhi,Delhi,"Okhla Phase-2, Delhi - DPCC","27-04-2025 21:00:00",28.530785,77.271255,PM2.5,48,267,105
India,Delhi,Delhi,"Okhla Phase-2, Delhi - DPCC","27-04-2025 21:00:00",28.530785,77.271255,NO2,29,212,96
India,Delhi,Delhi,"Okhla Phase-2, Delhi - DPCC","27-04-2025 21:00:00",28.530785,77.271255,CO,22,105,49
India,Delhi,Delhi,"Punjabi Bagh, Delhi - DPCC","27-04-2025 21:00:00",28.674045,77.131023,NO2,55,84,69
India,Delhi,Delhi,"Punjabi Bagh, Delhi - DPCC","27-04-2025 21:00:00",28.674045,77.131023,CO,38,102,52
India,Delhi,Delhi,"Pusa, Delhi - DPCC","27-04-2025 21:00:00",28.639652,77.146275,PM2.5,47,223,99
India,Delhi,Delhi,"Pusa, Delhi - DPCC","27-04-2025 21:00:00",28.639652,77.146275,NH3,6,14,10
India,Delhi,Delhi,"Pusa, Delhi - DPCC","27-04-2025 21:00:00",28.639652,77.146275,SO2,9,50,22
India,Delhi,Delhi,"Pusa, Delhi - IMD","27-04-2025 21:00:00",28.636110,77.173332,CO,NA,NA,NA
India,"Himachal Pradesh",Baddi,"HIMUDA Complex Phase-1, Baddi - HPPCB","27-04-2025 21:00:00",30.943887,76.801991,OZONE,22,172,147
India,Karnataka,Belgaum,"Ramteerth Nagar, Belgaum - KSPCB","27-04-2025 21:00:00",15.888653,74.541751,NO2,NA,NA,NA
India,Karnataka,Belgaum,"Ramteerth Nagar, Belgaum - KSPCB","27-04-2025 21:00:00",15.888653,74.541751,NH3,1,4,2
India,Karnataka,Belgaum,"Ramteerth Nagar, Belgaum - KSPCB","27-04-2025 21:00:00",15.888653,74.541751,CO,21,26,22
India,Gujarat,Ahmedabad,"Raikhad, Ahmedabad - IITM","27-04-2025 21:00:00",23.020509,72.579261,CO,2,90,28
India,Gujarat,Ahmedabad,"SAC ISRO Satellite, Ahmedabad - IITM","27-04-2025 21:00:00",23.023389,72.515201,NO2,35,57,43
India,Gujarat,Ahmedabad,"SAC ISRO Satellite, Ahmedabad - IITM","27-04-2025 21:00:00",23.023389,72.515201,OZONE,15,75,62
India,Gujarat,Ahmedabad,"SVPI Airport Hansol, Ahmedabad - IITM","27-04-2025 21:00:00",23.076793,72.627874,NO2,8,50,19
India,Delhi,Delhi,"Shadipur, Delhi - CPCB","27-04-2025 21:00:00",28.6514781,77.1473105,NH3,1,12,7
India,Delhi,Delhi,"Shadipur, Delhi - CPCB","27-04-2025 21:00:00",28.6514781,77.1473105,SO2,1,59,21
India,Delhi,Delhi,"Shadipur, Delhi - CPCB","27-04-2025 21:00:00",28.6514781,77.1473105,CO,6,86,50
India,Delhi,Delhi,"Sirifort, Delhi - CPCB","27-04-2025 21:00:00",28.5504249,77.2159377,PM2.5,76,255,155
India,Delhi,Delhi,"Sirifort, Delhi - CPCB","27-04-2025 21:00:00",28.5504249,77.2159377,SO2,37,41,39
India,Delhi,Delhi,"Sonia Vihar, Delhi - DPCC","27-04-2025 21:00:00",28.710508,77.249485,NO2,12,99,45
India,Delhi,Delhi,"Sonia Vihar, Delhi - DPCC","27-04-2025 21:00:00",28.710508,77.249485,OZONE,2,176,130
India,Delhi,Delhi,"Sri Aurobindo Marg, Delhi - DPCC","27-04-2025 21:00:00",28.531346,77.190156,NH3,4,8,6
India,Kerala,Thiruvananthapuram,"Plammoodu, Thiruvananthapuram - Kerala PCB","27-04-2025 21:00:00",8.5149093,76.9435879,NH3,1,2,2
India,Kerala,Thiruvananthapuram,"Plammoodu, Thiruvananthapuram - Kerala PCB","27-04-2025 21:00:00",8.5149093,76.9435879,SO2,8,26,17
India,Kerala,Thrissur,"Corporation Ground, Thrissur - Kerala PCB","27-04-2025 21:00:00",10.532400,76.215900,PM10,NA,NA,NA
India,"Madhya Pradesh",Bhopal,"Idgah Hills, Bhopal - MPPCB","27-04-2025 21:00:00",23.264759,77.381568,PM2.5,NA,NA,NA
India,"Madhya Pradesh",Bhopal,"Idgah Hills, Bhopal - MPPCB","27-04-2025 21:00:00",23.264759,77.381568,CO,58,104,90
India,"Madhya Pradesh",Bhopal,"Idgah Hills, Bhopal - MPPCB","27-04-2025 21:00:00",23.264759,77.381568,OZONE,74,312,152
India,"Madhya Pradesh",Bhopal,"T T Nagar, Bhopal - MPPCB","27-04-2025 21:00:00",23.233584,77.400574,PM2.5,26,94,55
India,"Madhya Pradesh",Bhopal,"T T Nagar, Bhopal - MPPCB","27-04-2025 21:00:00",23.233584,77.400574,SO2,13,30,22
India,Karnataka,Bengaluru,"Silk Board, Bengaluru - KSPCB","27-04-2025 21:00:00",12.917348,77.622813,SO2,7,12,9
India,Karnataka,Bengaluru,"Silk Board, Bengaluru - KSPCB","27-04-2025 21:00:00",12.917348,77.622813,CO,4,36,18
India,Karnataka,Chamarajanagar,"Urban, Chamarajanagar - KSPCB","27-04-2025 21:00:00",11.55358,76.55521,CO,22,120,22
India,Karnataka,Chikkaballapur,"Chikkaballapur Rural, Chikkaballapur - KSPCB","27-04-2025 21:00:00",13.428828,77.731418,PM2.5,44,67,58
India,Karnataka,Chikkaballapur,"Chikkaballapur Rural, Chikkaballapur - KSPCB","27-04-2025 21:00:00",13.428828,77.731418,PM10,51,76,62
India,Karnataka,Chikkaballapur,"Chikkaballapur Rural, Chikkaballapur - KSPCB","27-04-2025 21:00:00",13.428828,77.731418,NO2,8,32,21
India,Karnataka,Chikkaballapur,"Chikkaballapur Rural, Chikkaballapur - KSPCB","27-04-2025 21:00:00",13.428828,77.731418,SO2,12,34,23
India,Karnataka,Chikkamagaluru,"Kalyana Nagara, Chikkamagaluru - KSPCB","27-04-2025 21:00:00",13.328028,75.797056,NO2,NA,NA,NA
India,Kerala,Eloor,"Udyogamandal, Eloor - Kerala PCB","27-04-2025 21:00:00",10.073232,76.302765,NO2,7,9,8
India,Kerala,Eloor,"Udyogamandal, Eloor - Kerala PCB","27-04-2025 21:00:00",10.073232,76.302765,OZONE,11,19,15
India,Kerala,Kannur,"Thavakkara, Kannur - Kerala PCB","27-04-2025 21:00:00",11.875000,75.373200,PM10,56,63,59
India,Kerala,Kannur,"Thavakkara, Kannur - Kerala PCB","27-04-2025 21:00:00",11.875000,75.373200,CO,24,27,25
India,Kerala,Kollam,"Polayathode, Kollam - Kerala PCB","27-04-2025 21:00:00",8.8787,76.6073,PM2.5,27,33,30
India,Kerala,Kollam,"Polayathode, Kollam - Kerala PCB","27-04-2025 21:00:00",8.8787,76.6073,PM10,69,77,73
India,Kerala,Kollam,"Polayathode, Kollam - Kerala PCB","27-04-2025 21:00:00",8.8787,76.6073,NO2,8,10,9
India,Kerala,Thiruvananthapuram,"Kariavattom, Thiruvananthapuram - Kerala PCB","27-04-2025 21:00:00",8.563700,76.886500,OZONE,36,37,36
India,Karnataka,Madikeri,"Stuart Hill, Madikeri - KSPCB","27-04-2025 21:00:00",12.415911,75.735050,PM10,19,60,32
India,Karnataka,Madikeri,"Stuart Hill, Madikeri - KSPCB","27-04-2025 21:00:00",12.415911,75.735050,NH3,1,2,1
India,Karnataka,Mysuru,"Hebbal 1st Stage, Mysuru - KSPCB","27-04-2025 21:00:00",12.21041,76.37376,CO,2,27,16
India,Karnataka,Shivamogga,"Vinoba Nagara, Shivamogga - KSPCB","27-04-2025 21:00:00",13.940000,75.555917,PM2.5,25,46,41
India,Karnataka,Shivamogga,"Vinoba Nagara, Shivamogga - KSPCB","27-04-2025 21:00:00",13.940000,75.555917,OZONE,15,50,45
India,Karnataka,Yadgir,"Collector Office, Yadgir - KSPCB","27-04-2025 21:00:00",16.7602,77.1428,PM2.5,20,500,74
India,Karnataka,Yadgir,"Collector Office, Yadgir - KSPCB","27-04-2025 21:00:00",16.7602,77.1428,PM10,38,101,57
India,"Madhya Pradesh",Damoh,"Shrivastav Colony, Damoh - MPPCB","27-04-2025 21:00:00",23.81748678,79.446246,SO2,4,22,11
India,"Madhya Pradesh",Dewas,"Bhopal Chauraha, Dewas - MPPCB","27-04-2025 21:00:00",22.9682591,76.064118,OZONE,52,167,56
India,"Madhya Pradesh",Gwalior,"Deen Dayal Nagar, Gwalior - MPPCB","27-04-2025 21:00:00",26.259242,78.216432,NH3,5,9,7
India,"Madhya Pradesh",Gwalior,"Maharaj Bada, Gwalior - MPPCB","27-04-2025 21:00:00",26.200388,78.147714,PM2.5,40,143,72
India,"Madhya Pradesh",Gwalior,"Maharaj Bada, Gwalior - MPPCB","27-04-2025 21:00:00",26.200388,78.147714,PM10,72,179,116
India,"Madhya Pradesh",Gwalior,"Maharaj Bada, Gwalior - MPPCB","27-04-2025 21:00:00",26.200388,78.147714,NO2,1,4,3
India,"Madhya Pradesh",Gwalior,"Maharaj Bada, Gwalior - MPPCB","27-04-2025 21:00:00",26.200388,78.147714,NH3,1,2,1
India,Karnataka,Davanagere,"Devaraj Urs Badavane, Davanagere - KSPCB","27-04-2025 21:00:00",14.475800,75.905200,PM2.5,35,82,58
India,Karnataka,Davanagere,"Devaraj Urs Badavane, Davanagere - KSPCB","27-04-2025 21:00:00",14.475800,75.905200,NO2,2,17,12
India,Karnataka,Dharwad,"Kalabhavan, Dharwad - KSPCB","27-04-2025 21:00:00",15.459706,75.008381,SO2,1,2,2
India,Karnataka,Dharwad,"Kalabhavan, Dharwad - KSPCB","27-04-2025 21:00:00",15.459706,75.008381,CO,45,75,58
India,Karnataka,Kalaburagi,"Mahatma Basaveswar Colony, Kalaburgi - KSPCB","27-04-2025 21:00:00",17.336318,76.847397,CO,33,86,40
India,Karnataka,Kalaburagi,"Mahatma Basaveswar Colony, Kalaburgi - KSPCB","27-04-2025 21:00:00",17.336318,76.847397,OZONE,2,13,11
India,Karnataka,Bengaluru,"Jayanagar 5th Block, Bengaluru - KSPCB","27-04-2025 21:00:00",12.920984,77.584908,OZONE,9,26,18
India,Karnataka,Bengaluru,"Jigani, Bengaluru - KSPCB","27-04-2025 21:00:00",12.7816279,77.6299145,NH3,7,7,7
India,Karnataka,Bengaluru,"Jigani, Bengaluru - KSPCB","27-04-2025 21:00:00",12.7816279,77.6299145,SO2,21,22,22
India,Karnataka,Bengaluru,"Jigani, Bengaluru - KSPCB","27-04-2025 21:00:00",12.7816279,77.6299145,CO,31,33,32
India,Karnataka,Bengaluru,"Peenya, Bengaluru - CPCB","27-04-2025 21:00:00",13.0270199,77.494094,OZONE,29,33,32
India,Karnataka,Bengaluru,"RVCE-Mailasandra, Bengaluru - KSPCB","27-04-2025 21:00:00",12.921418,77.502466,NH3,3,4,4
India,Karnataka,Bengaluru,"Bapuji Nagar, Bengaluru - KSPCB","27-04-2025 21:00:00",12.951913,77.539784,SO2,25,49,41
India,Karnataka,Bengaluru,"Bapuji Nagar, Bengaluru - KSPCB","27-04-2025 21:00:00",12.951913,77.539784,CO,16,44,37
India,Karnataka,Bengaluru,"Hebbal, Bengaluru - KSPCB","27-04-2025 21:00:00",13.029152,77.585901,PM10,59,95,77
India,Karnataka,Bengaluru,"Hebbal, Bengaluru - KSPCB","27-04-2025 21:00:00",13.029152,77.585901,NO2,28,56,43
India,Karnataka,Bengaluru,"Hombegowda Nagar, Bengaluru - KSPCB","27-04-2025 21:00:00",12.938539,77.590100,NH3,1,1,1
India,"Madhya Pradesh",Indore,"Maguda Nagar, Indore - IMC","27-04-2025 21:00:00",22.7524,75.8872,NO2,2,2,2
India,"Madhya Pradesh",Indore,"Residency Area, Indore - IMC","27-04-2025 21:00:00",22.7084,75.8815,CO,16,19,17
India,"Madhya Pradesh",Indore,"Residency Area, Indore - IMC","27-04-2025 21:00:00",22.7084,75.8815,OZONE,10,20,17
India,Maharashtra,Aurangabad,"Rachnakar Colony, Aurangabad - MPCB","27-04-2025 21:00:00",19.863756,75.321188,CO,14,84,25
India,Maharashtra,Aurangabad,"Rachnakar Colony, Aurangabad - MPCB","27-04-2025 21:00:00",19.863756,75.321188,OZONE,19,126,28
India,Maharashtra,Badlapur,"Katrap, Badlapur - MPCB","27-04-2025 21:00:00",19.16485,73.23409,PM2.5,8,135,72
India,Maharashtra,Badlapur,"Katrap, Badlapur - MPCB","27-04-2025 21:00:00",19.16485,73.23409,SO2,13,27,18
India,Maharashtra,Badlapur,"Katrap, Badlapur - MPCB","27-04-2025 21:00:00",19.16485,73.23409,CO,10,28,15
India,Maharashtra,Belapur,"CBD Belapur, Belapur - MPCB","27-04-2025 21:00:00",19.0243902,73.0406721,NO2,2,6,4
India,Maharashtra,Bhiwandi,"Gokul Nagar, Bhiwandi - MPCB","27-04-2025 21:00:00",19.309073,73.057223,PM10,86,133,104
India,Maharashtra,Bhiwandi,"Gokul Nagar, Bhiwandi - MPCB","27-04-2025 21:00:00",19.309073,73.057223,NH3,2,6,4
India,Maharashtra,Boisar,"Khaira, Boisar - MPCB","27-04-2025 21:00:00",19.786089,72.757971,NO2,4,22,12
India,Maharashtra,Boisar,"Khaira, Boisar - MPCB","27-04-2025 21:00:00",19.786089,72.757971,SO2,NA,NA,NA
India,Maharashtra,Chandrapur,"Chauhan Colony, Chandrapur - MPCB","27-04-2025 21:00:00",19.962900,79.298714,PM2.5,30,409,87
India,Maharashtra,Chandrapur,"Chauhan Colony, Chandrapur - MPCB","27-04-2025 21:00:00",19.962900,79.298714,NO2,8,8,8
India,"Madhya Pradesh",Jabalpur,"Suhagi, Jabalpur - JMC","27-04-2025 21:00:00",23.218135,79.957770,CO,8,105,40
India,"Madhya Pradesh",Jabalpur,"Suhagi, Jabalpur - JMC","27-04-2025 21:00:00",23.218135,79.957770,OZONE,4,103,75
India,"Madhya Pradesh",Katni,"Gole Bazar, Katni - MPPCB","27-04-2025 21:00:00",23.50016,80.23284,PM2.5,20,99,45
India,"Madhya Pradesh",Katni,"Gole Bazar, Katni - MPPCB","27-04-2025 21:00:00",23.50016,80.23284,NO2,12,90,30
India,"Madhya Pradesh",Katni,"Gole Bazar, Katni - MPPCB","27-04-2025 21:00:00",23.50016,80.23284,SO2,25,87,39
India,"Madhya Pradesh",Maihar,"Sahilara, Maihar - KJS Cements","27-04-2025 21:00:00",24.2613009,80.7231783,SO2,NA,NA,NA
India,"Madhya Pradesh",Mandideep,"Sector-D Industrial Area, Mandideep - MPPCB","27-04-2025 21:00:00",23.108440,77.511428,NH3,4,5,4
India,"Madhya Pradesh",Mandideep,"Sector-D Industrial Area, Mandideep - MPPCB","27-04-2025 21:00:00",23.108440,77.511428,CO,9,105,27
India,"Madhya Pradesh",Ratlam,"Shasthri Nagar, Ratlam - IPCA Lab","27-04-2025 21:00:00",23.331731,75.045981,SO2,40,46,42
India,Maharashtra,Amravati,"Shivneri Colony, Amravati - MPCB","27-04-2025 21:00:00",20.9402359,77.7895248,PM2.5,2,68,34
India,Maharashtra,Amravati,"Shivneri Colony, Amravati - MPCB","27-04-2025 21:00:00",20.9402359,77.7895248,SO2,11,25,14
India,Maharashtra,Amravati,"Shri Shivaji Science College, Amaravati - MPCB","27-04-2025 21:00:00",20.939198,77.765701,PM2.5,37,60,49
India,Maharashtra,Amravati,"Shri Shivaji Science College, Amaravati - MPCB","27-04-2025 21:00:00",20.939198,77.765701,NO2,4,68,13
India,Maharashtra,Amravati,"Shri Shivaji Science College, Amaravati - MPCB","27-04-2025 21:00:00",20.939198,77.765701,CO,11,102,29
India,Maharashtra,Aurangabad,"MIDC Chilkalthana, Aurangabad - MPCB","27-04-2025 21:00:00",19.875620,75.387310,PM2.5,28,131,71
India,Maharashtra,Aurangabad,"MIDC Chilkalthana, Aurangabad - MPCB","27-04-2025 21:00:00",19.875620,75.387310,OZONE,10,54,45
India,Maharashtra,Aurangabad,"More Chowk Waluj, Aurangabad - MPCB","27-04-2025 21:00:00",19.8389439,75.244448,NH3,9,10,10
India,"Madhya Pradesh",Sagar,"Deen Dayal Nagar, Sagar - MPPCB","27-04-2025 21:00:00",23.8640158,78.80289321,PM10,39,118,75
India,"Madhya Pradesh",Sagar,"Deen Dayal Nagar, Sagar - MPPCB","27-04-2025 21:00:00",23.8640158,78.80289321,SO2,3,10,7
India,"Madhya Pradesh",Singrauli,"Suryakiran Bhawan NCL, Singrauli - MPPCB","27-04-2025 21:00:00",24.108970,82.645580,PM10,18,66,35
India,"Madhya Pradesh",Singrauli,"Suryakiran Bhawan NCL, Singrauli - MPPCB","27-04-2025 21:00:00",24.108970,82.645580,NH3,3,10,7
India,Maharashtra,Ahmednagar,"Tarakpur, Ahmednagar - MPCB","27-04-2025 21:00:00",19.10122,74.73339,PM2.5,80,169,114
India,Maharashtra,Ahmednagar,"Tarakpur, Ahmednagar - MPCB","27-04-2025 21:00:00",19.10122,74.73339,NH3,5,10,7
India,Maharashtra,Chandrapur,"Chauhan Colony, Chandrapur - MPCB","27-04-2025 21:00:00",19.962900,79.298714,SO2,5,5,5
India,Maharashtra,Chandrapur,"MIDC Khutala, Chandrapur - MPCB","27-04-2025 21:00:00",19.9775302,79.2337086,PM2.5,NA,NA,NA
India,Maharashtra,Jalna,"Old MIDC, Jalna - MPCB","27-04-2025 21:00:00",19.854616,75.905894,NO2,18,37,25
India,Maharashtra,Jalna,"Old MIDC, Jalna - MPCB","27-04-2025 21:00:00",19.854616,75.905894,SO2,5,13,8
India,Maharashtra,Kalyan,"Khadakpada, Kalyan - MPCB","27-04-2025 21:00:00",19.25292,73.142019,SO2,3,5,4
India,Maharashtra,Kalyan,"Khadakpada, Kalyan - MPCB","27-04-2025 21:00:00",19.25292,73.142019,OZONE,16,16,16
India,"Madhya Pradesh",Jabalpur,"Govindh Bhavan Colony, Jabalpur - JMC","27-04-2025 21:00:00",23.163174,79.973061,NO2,29,41,35
India,"Madhya Pradesh",Jabalpur,"Govindh Bhavan Colony, Jabalpur - JMC","27-04-2025 21:00:00",23.163174,79.973061,CO,8,27,17
India,"Madhya Pradesh",Jabalpur,"Govindh Bhavan Colony, Jabalpur - JMC","27-04-2025 21:00:00",23.163174,79.973061,OZONE,5,18,13
India,"Madhya Pradesh",Jabalpur,"Gupteshwar, Jabalpur - JMC","27-04-2025 21:00:00",23.142888,79.916147,PM10,25,145,91
India,"Madhya Pradesh",Jabalpur,"Gupteshwar, Jabalpur - JMC","27-04-2025 21:00:00",23.142888,79.916147,OZONE,15,95,73
India,"Madhya Pradesh",Jabalpur,"Marhatal, Jabalpur - MPPCB","27-04-2025 21:00:00",23.168606,79.932247,OZONE,16,83,69
India,Maharashtra,Mumbai,"Bandra Kurla Complex, Mumbai - IITM","27-04-2025 21:00:00",19.053536,72.84643,PM2.5,29,71,47
India,Maharashtra,Mumbai,"Bandra Kurla Complex, Mumbai - IITM","27-04-2025 21:00:00",19.053536,72.84643,CO,52,88,65
India,Maharashtra,Mumbai,"Bandra Kurla Complex, Mumbai - IITM","27-04-2025 21:00:00",19.053536,72.84643,OZONE,1,18,10
India,Maharashtra,Mumbai,"Borivali East, Mumbai - IITM","27-04-2025 21:00:00",19.23241,72.86895,NO2,22,59,36
India,Maharashtra,Mumbai,"Borivali East, Mumbai - MPCB","27-04-2025 21:00:00",19.2243333,72.8658113,PM10,39,291,104
India,Maharashtra,Kolhapur,"Sinchan Bhavan, Kolhapur - MPCB","27-04-2025 21:00:00",16.7143745,74.2426398,OZONE,8,66,47
India,Maharashtra,Latur,"Sawe Wadi, Latur - MPCB","27-04-2025 21:00:00",18.39963,76.57452,NO2,6,55,24
India,"Madhya Pradesh",Sagar,"Civil Lines, Sagar - MPPCB","27-04-2025 21:00:00",23.838586,78.759431,OZONE,22,54,45
India,Maharashtra,"Navi Mumbai","Sector-2E Kalamboli, Navi Mumbai - MPCB","27-04-2025 21:00:00",19.02579,73.10297,CO,16,22,18
India,Maharashtra,"Navi Mumbai","Sector-2E Kalamboli, Navi Mumbai - MPCB","27-04-2025 21:00:00",19.02579,73.10297,OZONE,3,97,48
India,Maharashtra,"Navi Mumbai","Tondare-Taloja, Navi Mumbai - MPCB","27-04-2025 21:00:00",19.0630,73.1209,NO2,9,40,18
India,Maharashtra,"Navi Mumbai","Tondare-Taloja, Navi Mumbai - MPCB","27-04-2025 21:00:00",19.0630,73.1209,CO,29,54,36
India,Maharashtra,Parbhani,"Masoom Colony, Parbhani - MPCB","27-04-2025 21:00:00",19.265594,76.761463,PM2.5,21,47,34
India,Maharashtra,Parbhani,"Masoom Colony, Parbhani - MPCB","27-04-2025 21:00:00",19.265594,76.761463,PM10,26,48,32
India,Maharashtra,Parbhani,"Masoom Colony, Parbhani - MPCB","27-04-2025 21:00:00",19.265594,76.761463,OZONE,21,136,104
India,Maharashtra,Pimpri-Chinchwad,"Park Street Wakad, Pimpri Chinchwad - MPCB","27-04-2025 21:00:00",18.59051,73.77946,PM10,64,114,86
India,Maharashtra,Pimpri-Chinchwad,"Park Street Wakad, Pimpri Chinchwad - MPCB","27-04-2025 21:00:00",18.59051,73.77946,OZONE,7,85,58
India,Maharashtra,Nagpur,"Opp GPO Civil Lines, Nagpur - MPCB","27-04-2025 21:00:00",21.152875,79.0517531,OZONE,7,66,55
India,Maharashtra,Nagpur,"Ram Nagar, Nagpur - MPCB","27-04-2025 21:00:00",21.143383,79.048912,PM2.5,63,122,80
India,Maharashtra,Nagpur,"Ram Nagar, Nagpur - MPCB","27-04-2025 21:00:00",21.143383,79.048912,NO2,2,40,10
India,Maharashtra,Nanded,"Sneh Nagar, Nanded - MPCB","27-04-2025 21:00:00",19.173852,77.296291,PM10,24,60,41
India,Maharashtra,Nanded,"Sneh Nagar, Nanded - MPCB","27-04-2025 21:00:00",19.173852,77.296291,NH3,4,5,4
India,Maharashtra,Nashik,"Gangapur Road, Nashik - MPCB","27-04-2025 21:00:00",20.0073285,73.7762427,PM2.5,47,87,69
India,Maharashtra,Nashik,"Gangapur Road, Nashik - MPCB","27-04-2025 21:00:00",20.0073285,73.7762427,NO2,4,23,10
India,Maharashtra,Nashik,"Gangapur Road, Nashik - MPCB","27-04-2025 21:00:00",20.0073285,73.7762427,SO2,3,9,6
India,Maharashtra,Nashik,"MIDC Ambad, Nashik - MPCB","27-04-2025 21:00:00",19.950220,73.731480,NO2,6,13,10
India,Maharashtra,Nashik,"Pandav Nagari, Nashik - MPCB","27-04-2025 21:00:00",19.9591346,73.7788008,SO2,7,15,9
India,Maharashtra,"Navi Mumbai","Kopripada-Vashi, Navi Mumbai - MPCB","27-04-2025 21:00:00",19.090337,73.014232,PM10,90,140,111
India,Maharashtra,"Navi Mumbai","Kopripada-Vashi, Navi Mumbai - MPCB","27-04-2025 21:00:00",19.090337,73.014232,CO,21,64,30
India,Maharashtra,"Navi Mumbai","Kopripada-Vashi, Navi Mumbai - MPCB","27-04-2025 21:00:00",19.090337,73.014232,OZONE,8,61,30
India,Maharashtra,"Navi Mumbai","Mahape, Navi Mumbai - MPCB","27-04-2025 21:00:00",19.1135051,73.008978,NH3,1,2,1
India,Maharashtra,"Navi Mumbai","Mahape, Navi Mumbai - MPCB","27-04-2025 21:00:00",19.1135051,73.008978,CO,36,41,38
India,Maharashtra,"Navi Mumbai","Sanpada, Navi Mumbai - MPCB","27-04-2025 21:00:00",19.0575752,73.0151367,NO2,14,56,35
India,Maharashtra,"Navi Mumbai","Sector-2E Kalamboli, Navi Mumbai - MPCB","27-04-2025 21:00:00",19.02579,73.10297,PM2.5,52,89,69
India,Maharashtra,Pimpri-Chinchwad,"Thergaon, Pimpri Chinchwad - MPCB","27-04-2025 21:00:00",18.616318,73.765797,SO2,1,10,4
India,Maharashtra,Pune,"Bhosari, Pune - IITM","27-04-2025 21:00:00",18.640051,73.848956,PM2.5,11,58,37
India,Maharashtra,Pune,"Bhosari, Pune - IITM","27-04-2025 21:00:00",18.640051,73.848956,OZONE,4,83,57
India,Maharashtra,Pune,"Bhumkar Nagar, Pune - IITM","27-04-2025 21:00:00",18.605770,73.749976,PM2.5,24,65,44
India,Maharashtra,Pune,"Bhumkar Nagar, Pune - IITM","27-04-2025 21:00:00",18.605770,73.749976,NO2,10,26,17
India,Maharashtra,Pune,"Hadapsar, Pune - IITM","27-04-2025 21:00:00",18.501793,73.927532,PM10,35,131,72
India,Maharashtra,Mumbai,"Chembur, Mumbai - MPCB","27-04-2025 21:00:00",19.0364585,72.8954371,NH3,5,10,7
India,Maharashtra,Mumbai,"Chembur, Mumbai - MPCB","27-04-2025 21:00:00",19.0364585,72.8954371,CO,34,42,37
India,Maharashtra,Mumbai,"Chhatrapati Shivaji Intl. Airport (T2), Mumbai - MPCB","27-04-2025 21:00:00",19.10078,72.87462,PM10,69,85,76
India,Maharashtra,Mumbai,"Chhatrapati Shivaji Intl. Airport (T2), Mumbai - MPCB","27-04-2025 21:00:00",19.10078,72.87462,NH3,1,1,1
India,Maharashtra,Mumbai,"Chhatrapati Shivaji Intl. Airport (T2), Mumbai - MPCB","27-04-2025 21:00:00",19.10078,72.87462,OZONE,7,7,7
India,Maharashtra,Mumbai,"Kandivali East, Mumbai - MPCB","27-04-2025 21:00:00",19.205800,72.868200,PM10,99,105,102
India,Maharashtra,Mumbai,"Mazgaon, Mumbai - IITM","27-04-2025 21:00:00",18.96702,72.84214,NH3,6,8,7
India,Maharashtra,Mumbai,"Mazgaon, Mumbai - IITM","27-04-2025 21:00:00",18.96702,72.84214,CO,6,23,12
India,Maharashtra,Mumbai,"Mindspace-Malad West, Mumbai - MPCB","27-04-2025 21:00:00",19.1878657,72.8304069,NO2,4,48,15
India,Maharashtra,Mumbai,"Navy Nagar-Colaba, Mumbai - IITM","27-04-2025 21:00:00",18.897756,72.813320,PM2.5,17,40,26
India,Maharashtra,Mumbai,"Vasai West, Mumbai - MPCB","27-04-2025 21:00:00",19.383200,72.820400,NO2,15,17,16
India,Maharashtra,Mumbai,"Vile Parle West, Mumbai - MPCB","27-04-2025 21:00:00",19.10861,72.83622,NH3,3,4,3
India,Maharashtra,Mumbai,"Worli, Mumbai - MPCB","27-04-2025 21:00:00",18.9936162,72.8128113,PM2.5,NA,NA,NA
India,Maharashtra,Mumbai,"Worli, Mumbai - MPCB","27-04-2025 21:00:00",18.9936162,72.8128113,CO,14,14,14
India,Maharashtra,Nagpur,"Mahal, Nagpur - MPCB","27-04-2025 21:00:00",21.14472,79.107595,PM2.5,68,81,75
India,Maharashtra,Nagpur,"Opp GPO Civil Lines, Nagpur - MPCB","27-04-2025 21:00:00",21.152875,79.0517531,NO2,9,69,27
India,Maharashtra,Pune,"Mhada Colony, Pune - IITM","27-04-2025 21:00:00",18.573040,73.927715,PM10,104,165,119
India,Maharashtra,Pune,"Revenue Colony-Shivajinagar, Pune - IITM","27-04-2025 21:00:00",18.530085,73.849598,PM10,72,174,100
India,Maharashtra,Pune,"Revenue Colony-Shivajinagar, Pune - IITM","27-04-2025 21:00:00",18.530085,73.849598,CO,71,81,77
India,Maharashtra,Mumbai,"Kurla, Mumbai - MPCB","27-04-2025 21:00:00",19.0863,72.8888,PM10,65,172,105
India,Maharashtra,Mumbai,"Malad West, Mumbai - IITM","27-04-2025 21:00:00",19.19709,72.82204,PM10,50,85,69
India,Maharashtra,Mumbai,"Malad West, Mumbai - IITM","27-04-2025 21:00:00",19.19709,72.82204,NH3,7,13,8
India,Nagaland,Kohima,"PWD Juction, Kohima - NPCB","27-04-2025 21:00:00",25.6635413,94.0989878,SO2,60,60,60
India,Odisha,Angul,"Hakimapada, Angul - OSPCB","27-04-2025 21:00:00",20.832874,85.104082,PM2.5,47,107,69
India,Odisha,Angul,"Hakimapada, Angul - OSPCB","27-04-2025 21:00:00",20.832874,85.104082,PM10,60,160,93
India,Odisha,Angul,"Hakimapada, Angul - OSPCB","27-04-2025 21:00:00",20.832874,85.104082,NH3,11,18,14
India,Odisha,Balasore,"Kalidaspur, Balasore - OSPCB","27-04-2025 21:00:00",21.51161,86.89088,PM2.5,30,250,86
India,Odisha,Balasore,"Kalidaspur, Balasore - OSPCB","27-04-2025 21:00:00",21.51161,86.89088,NO2,7,67,24
India,Odisha,Balasore,"Kalidaspur, Balasore - OSPCB","27-04-2025 21:00:00",21.51161,86.89088,OZONE,53,154,120
India,Odisha,Barbil,"Forest Office, Barbil - OSPCB","27-04-2025 21:00:00",22.1166054,85.3945546,PM2.5,NA,NA,NA
India,Odisha,Barbil,"Forest Office, Barbil - OSPCB","27-04-2025 21:00:00",22.1166054,85.3945546,PM10,NA,NA,NA
India,Odisha,Barbil,"Forest Office, Barbil - OSPCB","27-04-2025 21:00:00",22.1166054,85.3945546,NH3,NA,NA,NA
India,Maharashtra,Thane,"Kasarvadavali, Thane - MPCB","27-04-2025 21:00:00",19.26777,72.97182,OZONE,3,70,32
India,Maharashtra,Thane,"Upvan Fort, Thane - MPCB","27-04-2025 21:00:00",19.222279,72.957979,NH3,1,3,2
India,Maharashtra,Thane,"Upvan Fort, Thane - MPCB","27-04-2025 21:00:00",19.222279,72.957979,SO2,1,8,2
India,Maharashtra,Thane,"Upvan Fort, Thane - MPCB","27-04-2025 21:00:00",19.222279,72.957979,OZONE,2,80,42
India,Maharashtra,Ulhasnagar,"Sidhi Vinayak Nagar, Ulhasnagar - MPCB","27-04-2025 21:00:00",19.235581,73.159121,CO,9,31,16
India,Manipur,Imphal,"DM College of Science, Imphal - Manipur PCB","27-04-2025 21:00:00",24.8207389,93.9423085,PM10,28,48,34
India,Manipur,Imphal,"DM College of Science, Imphal - Manipur PCB","27-04-2025 21:00:00",24.8207389,93.9423085,NH3,2,2,2
India,Mizoram,Aizawl,"Sikulpuikawn, Aizawl - Mizoram PCB","27-04-2025 21:00:00",23.7176342,92.7192841,PM10,47,87,60
India,Odisha,Cuttack,"CDA Area, Cuttack - OSPCB","27-04-2025 21:00:00","20.48891     ","85.84768     ",SO2,5,26,11
India,Odisha,Cuttack,"CDA Area, Cuttack - OSPCB","27-04-2025 21:00:00","20.48891     ","85.84768     ",CO,16,40,20
India,Odisha,Keonjhar,"Jagamohanpur, Keonjhar - OSPCB","27-04-2025 21:00:00",21.643900,85.599355,CO,15,98,54
India,Odisha,Nayagarh,"Dabuna, Nayagarh - OSPCB","27-04-2025 21:00:00",21.847279,85.416905,OZONE,15,39,16
India,Odisha,Rairangpur,"Divisional Forest Office, Rairangpur - OSPCB","27-04-2025 21:00:00",22.265816,86.174829,PM10,27,81,54
India,Odisha,Rourkela,"Fertilizer Township, Rourkela - OSPCB","27-04-2025 21:00:00",22.18972222,84.86277778,CO,20,29,25
India,Odisha,Rourkela,"Raghunathpali, Rourkela - OSPCB","27-04-2025 21:00:00",22.220833,84.809444,NO2,6,8,7
India,Punjab,Jalandhar,"Civil Line, Jalandhar - PPCB","27-04-2025 21:00:00",31.321907,75.578914,PM2.5,54,110,88
India,Punjab,Khanna,"Kalal Majra, Khanna - PPCB","27-04-2025 21:00:00","30.736056 ",76.209694,PM2.5,35,147,87
India,Punjab,Khanna,"Kalal Majra, Khanna - PPCB","27-04-2025 21:00:00","30.736056 ",76.209694,NO2,26,30,28
India,Punjab,Khanna,"Kalal Majra, Khanna - PPCB","27-04-2025 21:00:00","30.736056 ",76.209694,CO,92,103,101
India,Punjab,Ludhiana,"Punjab Agricultural University, Ludhiana - PPCB","27-04-2025 21:00:00",30.9028,75.8086,PM2.5,50,99,72
India,Punjab,Ludhiana,"Punjab Agricultural University, Ludhiana - PPCB","27-04-2025 21:00:00",30.9028,75.8086,SO2,2,35,14
India,Punjab,"Mandi Gobindgarh","RIMT University, Mandi Gobindgarh - PPCB","27-04-2025 21:00:00",30.649961,76.331442,PM10,112,249,154
India,Punjab,"Mandi Gobindgarh","RIMT University, Mandi Gobindgarh - PPCB","27-04-2025 21:00:00",30.649961,76.331442,OZONE,47,51,48
India,Maharashtra,Pune,"Transport Nagar-Nigdi, Pune - IITM","27-04-2025 21:00:00",18.664282,73.763966,PM2.5,9,70,37
India,Maharashtra,Pune,"Transport Nagar-Nigdi, Pune - IITM","27-04-2025 21:00:00",18.664282,73.763966,PM10,58,117,74
India,Maharashtra,Pune,"Transport Nagar-Nigdi, Pune - IITM","27-04-2025 21:00:00",18.664282,73.763966,NO2,23,67,45
India,Maharashtra,Solapur,"Dnyaneshwar Nagar, Solapur - MPCB","27-04-2025 21:00:00",17.6336264,75.9132495,PM2.5,34,66,54
India,Maharashtra,Solapur,"Ratandeep Housing Society, Solapur - MPCB","27-04-2025 21:00:00",17.65439,75.90649,PM2.5,NA,NA,NA
India,Maharashtra,Solapur,"Solapur, Solapur - MPCB","27-04-2025 21:00:00",17.6599188,75.9063906,PM2.5,46,46,46
India,Maharashtra,Thane,"Kasarvadavali, Thane - MPCB","27-04-2025 21:00:00",19.26777,72.97182,NO2,14,35,23
India,Rajasthan,Ajmer,"Civil Lines,  Ajmer - RSPCB","27-04-2025 21:00:00",26.470859,74.646594,OZONE,12,37,32
India,Rajasthan,Alwar,"Moti Doongri, Alwar - RSPCB","27-04-2025 21:00:00",27.554793,76.611536,CO,4,104,45
India,Rajasthan,Baran,"Bamboliya, Baran - RSPCB","27-04-2025 21:00:00",25.106006,76.469948,NH3,1,5,2
India,Rajasthan,Baran,"Bamboliya, Baran - RSPCB","27-04-2025 21:00:00",25.106006,76.469948,CO,2,54,8
India,Rajasthan,Barmer,"Railway Colony, Barmer - RSPCB","27-04-2025 21:00:00",25.747299,71.393989,NH3,3,54,14
India,Odisha,Tensa,"Barsua Iron Ore Mines, Tensa - OSPCB","27-04-2025 21:00:00",21.869985,85.167016,PM2.5,NA,NA,NA
India,Odisha,Tensa,"Barsua Iron Ore Mines, Tensa - OSPCB","27-04-2025 21:00:00",21.869985,85.167016,CO,10,28,26
India,Puducherry,Puducherry,"Jawahar Nagar, Puducherry - PPCC","27-04-2025 21:00:00",11.9309,79.8027,PM10,12,38,19
India,Puducherry,Puducherry,"Jawahar Nagar, Puducherry - PPCC","27-04-2025 21:00:00",11.9309,79.8027,CO,12,24,17
India,Rajasthan,Bharatpur,"Krishna Nagar, Bharatpur - RSPCB","27-04-2025 21:00:00",27.215415,77.50873,CO,21,62,33
India,Rajasthan,Bhilwara,"Pratap Nagar, Bhilwara - RSPCB","27-04-2025 21:00:00",25.339605,74.618883,PM10,71,184,116
India,Rajasthan,Bhiwadi,"RIICO Ind. Area III, Bhiwadi - RSPCB","27-04-2025 21:00:00",28.194909,76.862296,NH3,11,19,14
India,Odisha,Bhubaneswar,"Lingraj Mandir, Bhubaneswar - OSPCB","27-04-2025 21:00:00",20.240790,85.836784,CO,50,101,64
India,Odisha,Bhubaneswar,"Patia, Bhubaneswar - OSPCB","27-04-2025 21:00:00",20.34652,85.81630,NH3,1,5,3
India,Odisha,Bhubaneswar,"Patia, Bhubaneswar - OSPCB","27-04-2025 21:00:00",20.34652,85.81630,SO2,6,27,10
India,Odisha,Bhubaneswar,"Patia, Bhubaneswar - OSPCB","27-04-2025 21:00:00",20.34652,85.81630,OZONE,43,134,112
India,Rajasthan,Sirohi,"Vedhaynath Colony, Sirohi - RSPCB","27-04-2025 21:00:00",24.885261,72.857549,PM10,NA,NA,NA
India,Rajasthan,Sirohi,"Vedhaynath Colony, Sirohi - RSPCB","27-04-2025 21:00:00",24.885261,72.857549,OZONE,32,46,46
India,Rajasthan,"Sri Ganganagar","Old City, Sri Ganganagar - RSPCB","27-04-2025 21:00:00",29.931624,73.864511,OZONE,5,111,82
India,Rajasthan,Tonk,"Shastri Nagar, Tonk - RSPCB","27-04-2025 21:00:00",26.159933,75.780517,PM2.5,22,150,41
India,Rajasthan,Tonk,"Shastri Nagar, Tonk - RSPCB","27-04-2025 21:00:00",26.159933,75.780517,NO2,4,131,21
India,Rajasthan,Tonk,"Shastri Nagar, Tonk - RSPCB","27-04-2025 21:00:00",26.159933,75.780517,SO2,3,17,7
India,Rajasthan,Udaipur,"Ashok Nagar, Udaipur - RSPCB","27-04-2025 21:00:00",24.5886166,73.6321397,NO2,36,39,38
India,Rajasthan,Udaipur,"Ashok Nagar, Udaipur - RSPCB","27-04-2025 21:00:00",24.5886166,73.6321397,OZONE,3,75,47
India,TamilNadu,Ariyalur,"Keelapalur, Ariyalur - TNPCB","27-04-2025 21:00:00",11.06825,79.07033,PM2.5,31,69,46
India,Rajasthan,Dholpur,"Raja Ganj, Dholpur - RSPCB","27-04-2025 21:00:00",26.699557,77.898881,SO2,8,19,13
India,Rajasthan,Dholpur,"Raja Ganj, Dholpur - RSPCB","27-04-2025 21:00:00",26.699557,77.898881,CO,8,34,20
India,Rajasthan,Dungarpur,"Bhoiwada, Dungarpur - RSPCB","27-04-2025 21:00:00",23.837789,73.714926,SO2,4,34,16
India,Rajasthan,Dungarpur,"Bhoiwada, Dungarpur - RSPCB","27-04-2025 21:00:00",23.837789,73.714926,CO,7,20,11
India,Rajasthan,Jaipur,"Adarsh Nagar, Jaipur - RSPCB","27-04-2025 21:00:00",26.902909,75.836858,PM10,57,156,92
India,Rajasthan,Jaipur,"Mansarovar Sector-12, Jaipur - RSPCB","27-04-2025 21:00:00",26.843698,75.766894,PM10,73,500,145
India,Rajasthan,Jaipur,"Mansarovar Sector-12, Jaipur - RSPCB","27-04-2025 21:00:00",26.843698,75.766894,NO2,11,138,49
India,Rajasthan,Jaipur,"Mansarovar Sector-12, Jaipur - RSPCB","27-04-2025 21:00:00",26.843698,75.766894,NH3,1,5,3
India,Rajasthan,Jalore,"Mudtra Sili, Jalore - RSPCB","27-04-2025 21:00:00",25.344694,72.626208,NH3,2,5,3
India,Rajasthan,Jhalawar,"Rajlaxmi Nagar, Jhalawar - RSPCB","27-04-2025 21:00:00",24.588397,76.172782,NH3,3,6,4
India,Rajasthan,Jhalawar,"Rajlaxmi Nagar, Jhalawar - RSPCB","27-04-2025 21:00:00",24.588397,76.172782,SO2,3,10,7
India,Rajasthan,Jhalawar,"Rajlaxmi Nagar, Jhalawar - RSPCB","27-04-2025 21:00:00",24.588397,76.172782,CO,29,50,35
India,Rajasthan,Jhunjhunu,"Indra Nagar, Jhunjhunu - RSPCB","27-04-2025 21:00:00",28.108988,75.386577,NH3,2,14,11
India,Rajasthan,Jodhpur,"Collectorate, Jodhpur - RSPCB","27-04-2025 21:00:00",26.268249,73.0193853,OZONE,3,58,47
India,Rajasthan,Jodhpur,"Digari Kalan, Jodhpur - RSPCB","27-04-2025 21:00:00",26.295810,73.082283,NH3,1,4,3
India,Rajasthan,Jaipur,"Police Commissionerate, Jaipur - RSPCB","27-04-2025 21:00:00",26.9164092,75.7994901,NO2,76,106,95
India,Rajasthan,Jaipur,"Police Commissionerate, Jaipur - RSPCB","27-04-2025 21:00:00",26.9164092,75.7994901,OZONE,11,75,55
India,Rajasthan,Jaipur,"Sector-2 Murlipura, Jaipur - RSPCB","27-04-2025 21:00:00",26.960669,75.771817,PM2.5,52,368,112
India,Rajasthan,Jaipur,"Shastri Nagar, Jaipur - RSPCB","27-04-2025 21:00:00",26.9502929,75.730943,PM2.5,76,262,113
India,Rajasthan,Jaipur,"Shastri Nagar, Jaipur - RSPCB","27-04-2025 21:00:00",26.9502929,75.730943,PM10,105,314,136
India,Rajasthan,Jaisalmer,"Sadar Bazar, Jaisalmer - RSPCB","27-04-2025 21:00:00",26.912329,70.909168,PM10,52,281,109
India,Rajasthan,Kota,"Dhanmandi, Kota - RSPCB","27-04-2025 21:00:00",25.164090,75.858137,PM10,78,190,120
India,Rajasthan,Kota,"Dhanmandi, Kota - RSPCB","27-04-2025 21:00:00",25.164090,75.858137,SO2,6,22,12
India,Rajasthan,Kota,"Nayapura, Kota - RSPCB","27-04-2025 21:00:00",25.196024,75.855668,PM10,62,158,106
India,Rajasthan,Nagaur,"Karni Colony, Nagaur - RSPCB","27-04-2025 21:00:00",27.213494,73.734444,NO2,7,54,17
India,Rajasthan,Pali,"Indira Colony Vistar, Pali - RSPCB","27-04-2025 21:00:00",25.771061," 73.340227",PM10,108,179,135
India,Rajasthan,"Sawai Madhopur","Sahu Nagar, Sawai Madhopur - RSPCB","27-04-2025 21:00:00",26.031443,76.359327,PM10,96,321,142
India,Rajasthan,"Sawai Madhopur","Sahu Nagar, Sawai Madhopur - RSPCB","27-04-2025 21:00:00",26.031443,76.359327,NO2,13,35,21
India,Rajasthan,Sikar,"Radhakishan Pura, Sikar - RSPCB","27-04-2025 21:00:00",27.608912,75.153302,NO2,7,114,29
India,Rajasthan,Sikar,"Radhakishan Pura, Sikar - RSPCB","27-04-2025 21:00:00",27.608912,75.153302,NH3,4,11,6
India,Rajasthan,Sirohi,"Vedhaynath Colony, Sirohi - RSPCB","27-04-2025 21:00:00",24.885261,72.857549,PM2.5,NA,NA,NA
India,Rajasthan,Pali,"Indira Colony Vistar, Pali - RSPCB","27-04-2025 21:00:00",25.771061," 73.340227",OZONE,29,80,57
India,Rajasthan,Pratapgarh,"Pragati Nagar, Pratapgarh - RSPCB","27-04-2025 21:00:00",24.041198,74.780702,PM10,74,342,121
India,Rajasthan,Pratapgarh,"Pragati Nagar, Pratapgarh - RSPCB","27-04-2025 21:00:00",24.041198,74.780702,SO2,5,25,13
India,Rajasthan,Rajsamand,"Dhoinda, Rajsamand - RSPCB","27-04-2025 21:00:00",25.036360,73.883502,PM10,38,100,61
India,Rajasthan,Chittorgarh,"Shastri Nagar, Chittorgarh - RSPCB","27-04-2025 21:00:00",24.892047,74.623527,CO,8,80,27
India,Rajasthan,Churu,"Subash Chowk, Churu - RSPCB","27-04-2025 21:00:00",28.296139,74.961696,PM10,62,306,150
India,Rajasthan,Dausa,"Khatikan Mohalla, Dausa - RSPCB","27-04-2025 21:00:00",26.895552,76.334753,PM10,95,312,165
India,Rajasthan,Jodhpur,"Digari Kalan, Jodhpur - RSPCB","27-04-2025 21:00:00",26.295810,73.082283,OZONE,1,81,65
India,Rajasthan,Jodhpur,"Mandor, Jodhpur - RSPCB","27-04-2025 21:00:00",26.358805,73.047444,OZONE,16,127,110
India,Rajasthan,Jodhpur,"Samrat Ashok Udhyan, Jodhpur - RSPCB","27-04-2025 21:00:00",26.253384,72.976571,OZONE,10,146,116
India,TamilNadu,Vellore,"Vasanthapuram, Vellore - TNPCB","27-04-2025 21:00:00",12.909494,79.131861,NH3,2,3,2
India,Telangana,Hyderabad,"Bollaram Industrial Area, Hyderabad - TSPCB","27-04-2025 21:00:00",17.540891,78.358528,NH3,1,6,4
India,Telangana,Hyderabad,"Central University, Hyderabad - TSPCB","27-04-2025 21:00:00",17.460103,78.334361,PM2.5,13,67,28
India,Telangana,Hyderabad,"Central University, Hyderabad - TSPCB","27-04-2025 21:00:00",17.460103,78.334361,NO2,16,53,33
India,Telangana,Hyderabad,"ECIL Kapra, Hyderabad - TSPCB","27-04-2025 21:00:00",17.470431,78.566959,NO2,5,37,10
India,Telangana,Hyderabad,"ECIL Kapra, Hyderabad - TSPCB","27-04-2025 21:00:00",17.470431,78.566959,NH3,7,9,9
India,Telangana,Hyderabad,"ECIL Kapra, Hyderabad - TSPCB","27-04-2025 21:00:00",17.470431,78.566959,SO2,NA,NA,NA
India,Telangana,Hyderabad,"ICRISAT Patancheru, Hyderabad - TSPCB","27-04-2025 21:00:00",17.518400,78.278777,PM2.5,38,178,71
India,Telangana,Hyderabad,"ICRISAT Patancheru, Hyderabad - TSPCB","27-04-2025 21:00:00",17.518400,78.278777,PM10,47,158,82
India,Telangana,Hyderabad,"ICRISAT Patancheru, Hyderabad - TSPCB","27-04-2025 21:00:00",17.518400,78.278777,CO,16,74,24
India,Telangana,Hyderabad,"Nacharam_TSIIC IALA, Hyderabad - TSPCB","27-04-2025 21:00:00",17.429398,78.569354,NH3,6,8,7
India,Telangana,Hyderabad,"New Malakpet, Hyderabad - TSPCB","27-04-2025 21:00:00",17.37206,78.50864,PM2.5,29,46,36
India,Telangana,Hyderabad,"Ramachandrapuram, Hyderabad - TSPCB","27-04-2025 21:00:00",17.528544,78.286195,NO2,NA,NA,NA
India,Telangana,Hyderabad,"Ramachandrapuram, Hyderabad - TSPCB","27-04-2025 21:00:00",17.528544,78.286195,SO2,NA,NA,NA
India,Telangana,Hyderabad,"Sanathnagar, Hyderabad - TSPCB","27-04-2025 21:00:00",17.4559458,78.4332152,CO,2,100,51
India,Telangana,Hyderabad,"Somajiguda, Hyderabad - TSPCB","27-04-2025 21:00:00",17.417094,78.457437,NH3,2,2,2
India,Telangana,Hyderabad,"Somajiguda, Hyderabad - TSPCB","27-04-2025 21:00:00",17.417094,78.457437,SO2,8,13,11
India,Telangana,Hyderabad,"Somajiguda, Hyderabad - TSPCB","27-04-2025 21:00:00",17.417094,78.457437,OZONE,11,11,11
India,Telangana,Hyderabad,"Zoo Park, Hyderabad - TSPCB","27-04-2025 21:00:00",17.349694,78.451437,PM2.5,39,127,68
India,TamilNadu,Coimbatore,"SIDCO Kurichi, Coimbatore - TNPCB","27-04-2025 21:00:00",10.942451,76.978996,SO2,19,21,20
India,TamilNadu,Coimbatore,"SIDCO Kurichi, Coimbatore - TNPCB","27-04-2025 21:00:00",10.942451,76.978996,CO,14,43,18
India,TamilNadu,Cuddalore,"Kudikadu, Cuddalore - TNPCB","27-04-2025 21:00:00",11.6829898,79.7532099,PM10,14,79,32
India,TamilNadu,Cuddalore,"Kudikadu, Cuddalore - TNPCB","27-04-2025 21:00:00",11.6829898,79.7532099,SO2,10,11,10
India,TamilNadu,Cuddalore,"Semmandalam, Cuddalore - TNPCB","27-04-2025 21:00:00",11.7637683,79.7499835,OZONE,1,2,1
India,TamilNadu,Gummidipoondi,"Anthoni Pillai Nagar, Gummidipoondi - TNPCB","27-04-2025 21:00:00",13.4127,80.1081,NO2,32,54,42
India,TamilNadu,Gummidipoondi,"Anthoni Pillai Nagar, Gummidipoondi - TNPCB","27-04-2025 21:00:00",13.4127,80.1081,SO2,1,67,19
India,TamilNadu,Thanjavur,"Parisutham Nagar, Thanjavur - TNPCB","27-04-2025 21:00:00",10.7654824,79.1389968,NO2,3,5,4
India,TamilNadu,Thoothukudi,"Meelavittan, Thoothukudi - TNPCB","27-04-2025 21:00:00","8.816428 ",78.099039,PM10,36,172,73
India,TamilNadu,Tiruchirappalli,"St Joseph College, Tiruchirappalli - TNPCB","27-04-2025 21:00:00",10.830158,78.691849,OZONE,4,17,14
India,TamilNadu,Tirunelveli,"Municipal Corporation Office, Tirunelveli - TNPCB","27-04-2025 21:00:00",8.728442,77.6962,SO2,33,46,39
India,TamilNadu,Tirupur,"Kumaran College, Tirupur - TNPCB","27-04-2025 21:00:00",11.0973603,77.3228673,SO2,8,15,11
India,TamilNadu,Ariyalur,"Keelapalur, Ariyalur - TNPCB","27-04-2025 21:00:00",11.06825,79.07033,OZONE,4,16,14
India,TamilNadu,Chengalpattu,"Crescent University, Chengalpattu - TNPCB","27-04-2025 21:00:00",12.8777316,80.0834807,PM2.5,37,78,55
India,TamilNadu,Chennai,"Alandur Bus Depot, Chennai - CPCB","27-04-2025 21:00:00",12.9099161,80.1076538,PM10,14,54,16
India,TamilNadu,Chennai,"Alandur Bus Depot, Chennai - CPCB","27-04-2025 21:00:00",12.9099161,80.1076538,OZONE,1,106,2
India,TamilNadu,Chennai,"Kodungaiyur, Chennai - TNPCB","27-04-2025 21:00:00",13.1278,80.2642,SO2,1,7,4
India,TamilNadu,Chennai,"Manali, Chennai - CPCB","27-04-2025 21:00:00",13.164544,80.26285,NO2,NA,NA,NA
India,TamilNadu,Chennai,"Manali, Chennai - CPCB","27-04-2025 21:00:00",13.164544,80.26285,SO2,NA,NA,NA
India,TamilNadu,Chennai,"Manali, Chennai - CPCB","27-04-2025 21:00:00",13.164544,80.26285,OZONE,11,23,20
India,TamilNadu,Chennai,"Perungudi, Chennai - TNPCB","27-04-2025 21:00:00",12.9533,80.2357,NH3,2,3,2
India,TamilNadu,Chennai,"Royapuram, Chennai - TNPCB","27-04-2025 21:00:00",13.1036,80.2909,NH3,NA,NA,NA
India,TamilNadu,Chennai,"Royapuram, Chennai - TNPCB","27-04-2025 21:00:00",13.1036,80.2909,SO2,NA,NA,NA
India,TamilNadu,Chennai,"Velachery Res. Area, Chennai - CPCB","27-04-2025 21:00:00",13.0052189,80.2398125,PM2.5,21,42,34
India,TamilNadu,Chennai,"Velachery Res. Area, Chennai - CPCB","27-04-2025 21:00:00",13.0052189,80.2398125,CO,38,64,42
India,TamilNadu,Kanchipuram,"Kilambi, Kanchipuram - TNPCB","27-04-2025 21:00:00",12.864618,79.659968,PM2.5,18,105,46
India,TamilNadu,Madurai,"Uchapatti, Madurai - TNPCB","27-04-2025 21:00:00",9.865935,78.022669,CO,14,18,15
India,TamilNadu,Ooty,"Bombay Castel, Ooty - TNPCB","27-04-2025 21:00:00",11.4068288,76.7138973,NH3,10,17,15
India,TamilNadu,Palkalaiperur,"Bharathidasan University, Palkalaiperur - TNPCB","27-04-2025 21:00:00",10.681158,78.741746,PM2.5,12,38,24
India,TamilNadu,Palkalaiperur,"Bharathidasan University, Palkalaiperur - TNPCB","27-04-2025 21:00:00",10.681158,78.741746,NO2,10,10,10
India,Telangana,Hyderabad,"IDA Pashamylaram, Hyderabad - TSPCB","27-04-2025 21:00:00",17.5316895,78.218939,NO2,NA,NA,NA
India,Telangana,Hyderabad,"IITH Kandi, Hyderabad - TSPCB","27-04-2025 21:00:00",17.585705,78.126199,SO2,9,18,12
India,Telangana,Hyderabad,"IITH Kandi, Hyderabad - TSPCB","27-04-2025 21:00:00",17.585705,78.126199,CO,NA,NA,NA
India,Telangana,Hyderabad,"Kokapet, Hyderabad - TSPCB","27-04-2025 21:00:00",17.393559,78.339194,PM2.5,48,58,51
India,Telangana,Hyderabad,"Kompally Municipal Office, Hyderabad - TSPCB","27-04-2025 21:00:00",17.544899,78.486949,PM10,73,119,87
India,TamilNadu,Ramanathapuram,"Chalai Bazaar, Ramanathapuram - TNPCB","27-04-2025 21:00:00",9.36399,78.831977,PM2.5,22,47,33
India,TamilNadu,Salem,"Sona College of Technology, Salem - TNPCB","27-04-2025 21:00:00",11.679111,78.125052,OZONE,16,17,16
India,TamilNadu,Thanjavur,"Parisutham Nagar, Thanjavur - TNPCB","27-04-2025 21:00:00",10.7654824,79.1389968,PM2.5,17,46,27
India,Tripura,Agartala,"Bardowali, Agartala - Tripura SPCB","27-04-2025 21:00:00",23.8175497,91.2726974,SO2,21,21,21
India,Tripura,Agartala,"Bardowali, Agartala - Tripura SPCB","27-04-2025 21:00:00",23.8175497,91.2726974,CO,2,10,5
India,Tripura,Agartala,"Bardowali, Agartala - Tripura SPCB","27-04-2025 21:00:00",23.8175497,91.2726974,OZONE,308,353,323
India,Uttar_Pradesh,Agra,"Manoharpur, Agra - UPPCB","27-04-2025 21:00:00",27.23711,78.01936,PM2.5,14,56,32
India,Uttar_Pradesh,Agra,"Manoharpur, Agra - UPPCB","27-04-2025 21:00:00",27.23711,78.01936,PM10,25,100,58
India,Uttar_Pradesh,Agra,"Manoharpur, Agra - UPPCB","27-04-2025 21:00:00",27.23711,78.01936,NH3,1,2,1
India,Uttar_Pradesh,Agra,"Manoharpur, Agra - UPPCB","27-04-2025 21:00:00",27.23711,78.01936,SO2,20,23,21
India,Uttar_Pradesh,Agra,"Rohta, Agra - UPPCB","27-04-2025 21:00:00",27.106972,78.000111,SO2,12,20,16
India,Uttar_Pradesh,Agra,"Sanjay Palace, Agra - UPPCB","27-04-2025 21:00:00",27.19865833,78.00598056,PM2.5,20,116,58
India,Uttar_Pradesh,Agra,"Sanjay Palace, Agra - UPPCB","27-04-2025 21:00:00",27.19865833,78.00598056,CO,23,33,24
India,Uttar_Pradesh,Agra,"Sanjay Palace, Agra - UPPCB","27-04-2025 21:00:00",27.19865833,78.00598056,OZONE,9,103,81
India,Uttar_Pradesh,Agra,"Sector-3B Avas Vikas Colony, Agra - UPPCB","27-04-2025 21:00:00",27.19412,77.96237,PM10,58,258,133
India,Uttar_Pradesh,Agra,"Shahjahan Garden, Agra - UPPCB","27-04-2025 21:00:00",27.169338,78.03582,PM2.5,14,99,58
India,Uttar_Pradesh,Agra,"Shahjahan Garden, Agra - UPPCB","27-04-2025 21:00:00",27.169338,78.03582,PM10,18,121,75
India,Uttar_Pradesh,Agra,"Shahjahan Garden, Agra - UPPCB","27-04-2025 21:00:00",27.169338,78.03582,NH3,1,1,1
India,Uttar_Pradesh,Agra,"Shastripuram, Agra - UPPCB","27-04-2025 21:00:00",27.19862,77.92066,PM2.5,6,60,29
India,Uttar_Pradesh,Agra,"Shastripuram, Agra - UPPCB","27-04-2025 21:00:00",27.19862,77.92066,NO2,33,44,36
India,Uttar_Pradesh,Agra,"Shastripuram, Agra - UPPCB","27-04-2025 21:00:00",27.19862,77.92066,OZONE,2,6,4
India,Uttar_Pradesh,Baghpat,"Sardar Patel Inter College, Baghpat - UPPCB","27-04-2025 21:00:00",28.964949,77.278761,NO2,NA,NA,NA
India,Uttar_Pradesh,Bareilly,"Civil Lines, Bareilly - UPPCB","27-04-2025 21:00:00",28.359581,79.414455,OZONE,19,20,20
India,Uttar_Pradesh,"Greater Noida","Knowledge Park - III, Greater Noida - UPPCB","27-04-2025 21:00:00",28.47272,77.482000,PM10,86,188,134
India,Uttar_Pradesh,"Greater Noida","Knowledge Park - V, Greater Noida - UPPCB","27-04-2025 21:00:00",28.557054,77.453663,PM10,111,345,182
India,Uttar_Pradesh,Hapur,"Anand Vihar, Hapur - UPPCB","27-04-2025 21:00:00",28.725645,77.749675,PM10,NA,NA,NA
India,Uttar_Pradesh,Hapur,"Anand Vihar, Hapur - UPPCB","27-04-2025 21:00:00",28.725645,77.749675,NH3,NA,NA,NA
India,Uttar_Pradesh,Hapur,"Anand Vihar, Hapur - UPPCB","27-04-2025 21:00:00",28.725645,77.749675,SO2,NA,NA,NA
India,Uttar_Pradesh,Hapur,"Anand Vihar, Hapur - UPPCB","27-04-2025 21:00:00",28.725645,77.749675,OZONE,NA,NA,NA
India,Uttar_Pradesh,Jhansi,"Shivaji Nagar, Jhansi - UPPCB","27-04-2025 21:00:00",25.4547,78.6039,OZONE,1,30,17
India,Uttar_Pradesh,Kanpur,"FTI Kidwai Nagar, Kanpur - UPPCB","27-04-2025 21:00:00",26.428282,80.327067,PM10,52,177,108
India,Uttar_Pradesh,Bareilly,"Rajendra Nagar, Bareilly - UPPCB","27-04-2025 21:00:00",28.38910936,79.42963708,PM10,109,178,145
India,Uttar_Pradesh,Bareilly,"Rajendra Nagar, Bareilly - UPPCB","27-04-2025 21:00:00",28.38910936,79.42963708,OZONE,1,66,48
India,Uttar_Pradesh,Bulandshahr,"Yamunapuram, Bulandshahr - UPPCB","27-04-2025 21:00:00",28.406963,77.849831,PM10,107,237,156
India,Uttar_Pradesh,Bulandshahr,"Yamunapuram, Bulandshahr - UPPCB","27-04-2025 21:00:00",28.406963,77.849831,NO2,10,77,42
India,Uttar_Pradesh,Firozabad,"Nagla Bhau, Firozabad - UPPCB","27-04-2025 21:00:00",27.168897,78.376960,SO2,21,31,24
India,Uttar_Pradesh,Firozabad,"Nagla Bhau, Firozabad - UPPCB","27-04-2025 21:00:00",27.168897,78.376960,OZONE,8,12,11
India,Uttar_Pradesh,Firozabad,"Vibhab Nagar, Firozabad - UPPCB","27-04-2025 21:00:00",27.1594,78.3953,PM2.5,41,162,88
India,Uttar_Pradesh,Firozabad,"Vibhab Nagar, Firozabad - UPPCB","27-04-2025 21:00:00",27.1594,78.3953,NH3,2,2,2
India,Uttar_Pradesh,Ghaziabad,"Indirapuram, Ghaziabad - UPPCB","27-04-2025 21:00:00",28.646233,77.358075,NH3,6,10,8
India,Uttar_Pradesh,Ghaziabad,"Loni, Ghaziabad - UPPCB","27-04-2025 21:00:00",28.757294,77.278792,CO,28,103,51
India,Uttar_Pradesh,Ghaziabad,"Sanjay Nagar, Ghaziabad - UPPCB","27-04-2025 21:00:00",28.685382,77.453839,PM10,122,330,194
India,Uttar_Pradesh,Ghaziabad,"Vasundhara, Ghaziabad - UPPCB","27-04-2025 21:00:00",28.6603346,77.3572563,NO2,18,156,70
India,Uttar_Pradesh,Ghaziabad,"Vasundhara, Ghaziabad - UPPCB","27-04-2025 21:00:00",28.6603346,77.3572563,CO,36,112,59
India,Uttar_Pradesh,Gorakhpur,"Madan Mohan Malaviya University of Technology, Gorakhpur - UPPCB","27-04-2025 21:00:00",26.730136,83.433859,PM10,136,434,208
India,Uttar_Pradesh,Gorakhpur,"Madan Mohan Malaviya University of Technology, Gorakhpur - UPPCB","27-04-2025 21:00:00",26.730136,83.433859,OZONE,8,31,24
India,Uttar_Pradesh,Lucknow,"Gomti Nagar, Lucknow - UPPCB","27-04-2025 21:00:00",26.868120,81.005119,NO2,10,12,11
India,Uttar_Pradesh,Lucknow,"Gomti Nagar, Lucknow - UPPCB","27-04-2025 21:00:00",26.868120,81.005119,SO2,7,12,10
India,Uttar_Pradesh,Lucknow,"Kendriya Vidyalaya, Lucknow - CPCB","27-04-2025 21:00:00",26.906111,80.948222,CO,32,91,69
India,Uttar_Pradesh,Lucknow,"Talkatora District Industries Center, Lucknow - CPCB","27-04-2025 21:00:00",26.83399722,80.8917361,NO2,31,48,38
India,Uttar_Pradesh,Lucknow,"Talkatora District Industries Center, Lucknow - CPCB","27-04-2025 21:00:00",26.83399722,80.8917361,SO2,1,29,7
India,Uttar_Pradesh,Meerut,"Ganga Nagar, Meerut - UPPCB","27-04-2025 21:00:00",28.999264,77.7590354,PM2.5,68,218,142
India,Uttar_Pradesh,Meerut,"Ganga Nagar, Meerut - UPPCB","27-04-2025 21:00:00",28.999264,77.7590354,OZONE,9,128,101
India,Uttar_Pradesh,Meerut,"Jai Bhim Nagar, Meerut - UPPCB","27-04-2025 21:00:00",28.9535882,77.7622941,PM10,101,259,181
India,Uttar_Pradesh,Meerut,"Jai Bhim Nagar, Meerut - UPPCB","27-04-2025 21:00:00",28.9535882,77.7622941,NH3,7,46,13
India,Uttar_Pradesh,Meerut,"Pallavpuram Phase 2, Meerut - UPPCB","27-04-2025 21:00:00",29.063510,77.709723,PM2.5,34,274,109
India,Uttar_Pradesh,Meerut,"Pallavpuram Phase 2, Meerut - UPPCB","27-04-2025 21:00:00",29.063510,77.709723,NO2,17,39,27
India,Uttar_Pradesh,Moradabad,"Buddhi Vihar, Moradabad - UPPCB","27-04-2025 21:00:00",28.83526,78.74460,PM2.5,37,123,62
India,Uttar_Pradesh,Moradabad,"Eco Herbal Park, Moradabad - UPPCB","27-04-2025 21:00:00",28.840739,78.697531,SO2,16,68,35
India,Uttar_Pradesh,Moradabad,"Eco Herbal Park, Moradabad - UPPCB","27-04-2025 21:00:00",28.840739,78.697531,CO,12,102,49
India,Uttar_Pradesh,Kanpur,"FTI Kidwai Nagar, Kanpur - UPPCB","27-04-2025 21:00:00",26.428282,80.327067,OZONE,6,34,25
India,Uttar_Pradesh,Khurja,"Kalindi Kunj, Khurja - UPPCB","27-04-2025 21:00:00",28.2348927,77.8683002,PM2.5,25,111,52
India,Uttar_Pradesh,Khurja,"Kalindi Kunj, Khurja - UPPCB","27-04-2025 21:00:00",28.2348927,77.8683002,PM10,99,289,150
India,Uttar_Pradesh,Lucknow,"B R Ambedkar University, Lucknow - UPPCB","27-04-2025 21:00:00",26.766433,80.927299,SO2,59,64,62
India,Uttar_Pradesh,Lucknow,"B R Ambedkar University, Lucknow - UPPCB","27-04-2025 21:00:00",26.766433,80.927299,CO,12,27,15
India,Uttar_Pradesh,Moradabad,"Jigar Colony, Moradabad - UPPCB","27-04-2025 21:00:00",28.856664,78.772638,NO2,25,25,25
India,Uttar_Pradesh,Moradabad,"Kashiram Nagar, Moradabad - UPPCB","27-04-2025 21:00:00",28.849399,78.742362,PM10,99,194,145
India,Uttar_Pradesh,Moradabad,"Kashiram Nagar, Moradabad - UPPCB","27-04-2025 21:00:00",28.849399,78.742362,NO2,21,27,25
India,Uttar_Pradesh,Moradabad,"Transport Nagar, Moradabad - UPPCB","27-04-2025 21:00:00",28.802625,78.753728,SO2,28,55,42
India,Uttar_Pradesh,Moradabad,"Transport Nagar, Moradabad - UPPCB","27-04-2025 21:00:00",28.802625,78.753728,CO,24,55,43
India,Uttar_Pradesh,Noida,"Sector - 125, Noida - UPPCB","27-04-2025 21:00:00",28.5447608,77.3231257,CO,24,73,36
India,Uttar_Pradesh,Noida,"Sector-116, Noida - UPPCB","27-04-2025 21:00:00",28.569230,77.393848,NO2,NA,NA,NA
India,Uttar_Pradesh,Noida,"Sector-116, Noida - UPPCB","27-04-2025 21:00:00",28.569230,77.393848,SO2,20,42,35
India,Uttar_Pradesh,Noida,"Sector-116, Noida - UPPCB","27-04-2025 21:00:00",28.569230,77.393848,CO,2,103,38
India,Uttar_Pradesh,Varanasi,"Ardhali Bazar, Varanasi - UPPCB","27-04-2025 21:00:00",25.3505986,82.9083074,PM10,27,95,59
India,Uttar_Pradesh,Varanasi,"Ardhali Bazar, Varanasi - UPPCB","27-04-2025 21:00:00",25.3505986,82.9083074,NO2,31,71,42
India,Uttar_Pradesh,Varanasi,"Ardhali Bazar, Varanasi - UPPCB","27-04-2025 21:00:00",25.3505986,82.9083074,OZONE,23,32,29
India,Uttar_Pradesh,Varanasi,"Bhelupur, Varanasi - UPPCB","27-04-2025 21:00:00",25.301778,82.996789,PM10,53,387,96
India,Uttar_Pradesh,Varanasi,"Bhelupur, Varanasi - UPPCB","27-04-2025 21:00:00",25.301778,82.996789,NO2,7,8,8
India,Uttar_Pradesh,Varanasi,"Maldahiya, Varanasi - UPPCB","27-04-2025 21:00:00",25.32393,82.99687,NO2,2,2,2
India,Uttarakhand,Dehradun,"Doon University, Dehradun - UKPCB","27-04-2025 21:00:00",30.269444,78.044167,SO2,1,12,3
India,Uttarakhand,Kashipur,"Govt. Girls Inter College, Kashipur - UKPCB","27-04-2025 21:00:00",29.2124114,78.9611753,CO,20,103,75
India,Uttarakhand,Rishikesh,"Shivaji Nagar, Rishikesh - UKPCB","27-04-2025 21:00:00",30.075911,78.2859547,PM2.5,49,111,80
India,Uttarakhand,Rishikesh,"Shivaji Nagar, Rishikesh - UKPCB","27-04-2025 21:00:00",30.075911,78.2859547,OZONE,18,166,119
India,West_Bengal,Asansol,"Asansol Court Area, Asansol - WBPCB","27-04-2025 21:00:00",23.685297,86.945968,PM2.5,42,142,95
India,West_Bengal,Asansol,"Asansol Court Area, Asansol - WBPCB","27-04-2025 21:00:00",23.685297,86.945968,SO2,3,26,15
India,West_Bengal,Asansol,"Evelyn Lodge, Asansol - WBPCB","27-04-2025 21:00:00",23.6979360,86.9443950,PM10,58,124,92
India,West_Bengal,Asansol,"Mahabir Colliery, Asansol - WBPCB","27-04-2025 21:00:00",23.6181830,87.1057180,NO2,10,55,28
India,West_Bengal,Asansol,"Mahabir Colliery, Asansol - WBPCB","27-04-2025 21:00:00",23.6181830,87.1057180,NH3,3,4,3
India,West_Bengal,Asansol,"Trivenidevi Bhalotia College, Asansol - WBPCB","27-04-2025 21:00:00",23.616515,87.119133,SO2,7,11,9
India,West_Bengal,Barrackpore,"SVSPA Campus, Barrackpore - WBPCB","27-04-2025 21:00:00",22.7605581,88.3617589,NO2,5,33,17
India,West_Bengal,Barrackpore,"SVSPA Campus, Barrackpore - WBPCB","27-04-2025 21:00:00",22.7605581,88.3617589,CO,30,62,48
India,West_Bengal,Durgapur,"Mahishkapur Road_B-Zone, Durgapur - WBPCB","27-04-2025 21:00:00",23.567923,87.306843,PM10,98,144,118
India,West_Bengal,Durgapur,"Mahishkapur Road_B-Zone, Durgapur - WBPCB","27-04-2025 21:00:00",23.567923,87.306843,NO2,4,30,12
India,West_Bengal,Durgapur,"PCBL Residential Complex, Durgapur - WBPCB","27-04-2025 21:00:00",23.5087640,87.3544400,NH3,1,2,2
India,West_Bengal,Haldia,"Priyambada Housing Estate, Haldia - WBPCB","27-04-2025 21:00:00",22.06047,88.109737,OZONE,11,46,35
India,West_Bengal,Howrah,"Belur Math, Howrah - WBPCB","27-04-2025 21:00:00",22.629801,88.352017,NO2,34,36,35
India,West_Bengal,Howrah,"Belur Math, Howrah - WBPCB","27-04-2025 21:00:00",22.629801,88.352017,CO,2,24,10
India,West_Bengal,Howrah,"Botanical Garden, Howrah - WBPCB","27-04-2025 21:00:00",22.554954,88.292568,PM2.5,19,60,39
India,West_Bengal,Howrah,"Botanical Garden, Howrah - WBPCB","27-04-2025 21:00:00",22.554954,88.292568,NH3,1,2,2
India,West_Bengal,Howrah,"Dasnagar, Howrah - WBPCB","27-04-2025 21:00:00",22.6025571,88.3105664,PM2.5,27,120,66
India,West_Bengal,Howrah,"Dasnagar, Howrah - WBPCB","27-04-2025 21:00:00",22.6025571,88.3105664,PM10,46,107,72
India,West_Bengal,Howrah,"Ghusuri, Howrah - WBPCB","27-04-2025 21:00:00",22.611968,88.347422,PM10,50,239,91
India,West_Bengal,Howrah,"Padmapukur, Howrah - WBPCB","27-04-2025 21:00:00",22.5687319,88.2797276,NO2,8,331,42
India,West_Bengal,Howrah,"Padmapukur, Howrah - WBPCB","27-04-2025 21:00:00",22.5687319,88.2797276,NH3,2,85,18
India,West_Bengal,Kolkata,"Bidhannagar, Kolkata - WBPCB","27-04-2025 21:00:00",22.58157048,88.41002457,PM2.5,2,50,26
India,West_Bengal,Kolkata,"Fort William, Kolkata - WBPCB","27-04-2025 21:00:00",22.556640,88.342674,PM2.5,14,60,35
India,West_Bengal,Kolkata,"Fort William, Kolkata - WBPCB","27-04-2025 21:00:00",22.556640,88.342674,NH3,6,7,6
India,West_Bengal,Kolkata,"Jadavpur, Kolkata - WBPCB","27-04-2025 21:00:00",22.49929,88.36917,PM10,56,118,77
India,West_Bengal,Kolkata,"Jadavpur, Kolkata - WBPCB","27-04-2025 21:00:00",22.49929,88.36917,NO2,12,163,34
India,West_Bengal,Kolkata,"Rabindra Bharati University, Kolkata - WBPCB","27-04-2025 21:00:00",22.627847,88.380669,NH3,NA,NA,NA
India,West_Bengal,Kolkata,"Rabindra Sarobar, Kolkata - WBPCB","27-04-2025 21:00:00",22.51106,88.35142,PM2.5,22,44,31
India,West_Bengal,Kolkata,"Rabindra Sarobar, Kolkata - WBPCB","27-04-2025 21:00:00",22.51106,88.35142,NO2,32,121,56
India,West_Bengal,Kolkata,"Rabindra Sarobar, Kolkata - WBPCB","27-04-2025 21:00:00",22.51106,88.35142,NH3,4,10,6
India,West_Bengal,Kolkata,"Rabindra Sarobar, Kolkata - WBPCB","27-04-2025 21:00:00",22.51106,88.35142,CO,12,32,21
India,West_Bengal,Kolkata,"Rabindra Sarobar, Kolkata - WBPCB","27-04-2025 21:00:00",22.51106,88.35142,OZONE,34,94,75
India,West_Bengal,Kolkata,"Victoria, Kolkata - WBPCB","27-04-2025 21:00:00",22.5448082,88.3403691,SO2,6,12,8
India,West_Bengal,Siliguri,"Ward-32 Bapupara, Siliguri - WBPCB","27-04-2025 21:00:00",26.6879226,88.4152495,PM10,40,127,67
India,West_Bengal,Siliguri,"Ward-32 Bapupara, Siliguri - WBPCB","27-04-2025 21:00:00",26.6879226,88.4152495,OZONE,25,28,26
India,Bihar,Muzaffarpur,"MIT-Daudpur Kothi, Muzaffarpur - BSPCB","27-04-2025 21:00:00",26.1403345,85.3650192,OZONE,9,61,48
India,Bihar,Muzaffarpur,"Muzaffarpur Collectorate, Muzaffarpur - BSPCB","27-04-2025 21:00:00",26.1209,85.3647,CO,10,41,22
India,Bihar,Patna,"DRM Office Danapur, Patna - BSPCB","27-04-2025 21:00:00",25.586562,85.043586,PM2.5,55,305,202
India,Bihar,Patna,"DRM Office Danapur, Patna - BSPCB","27-04-2025 21:00:00",25.586562,85.043586,NH3,2,3,3
India,Bihar,Patna,"DRM Office Danapur, Patna - BSPCB","27-04-2025 21:00:00",25.586562,85.043586,CO,26,140,38
India,Bihar,Patna,"Govt. High School Shikarpur, Patna - BSPCB","27-04-2025 21:00:00",25.592539,85.227158,PM2.5,32,350,195
India,Bihar,Patna,"Govt. High School Shikarpur, Patna - BSPCB","27-04-2025 21:00:00",25.592539,85.227158,NO2,5,20,9
India,Bihar,Patna,"Govt. High School Shikarpur, Patna - BSPCB","27-04-2025 21:00:00",25.592539,85.227158,OZONE,21,98,77
India,Bihar,Patna,"Muradpur, Patna - BSPCB","27-04-2025 21:00:00",25.619651,85.147382,CO,27,66,41
India,Andhra_Pradesh,Chittoor,"Gangineni Cheruvu, Chittoor - APPCB","27-04-2025 21:00:00",13.204880,79.097889,PM10,NA,NA,NA
India,Andhra_Pradesh,Chittoor,"Gangineni Cheruvu, Chittoor - APPCB","27-04-2025 21:00:00",13.204880,79.097889,OZONE,16,33,25
India,Andhra_Pradesh,Kadapa,"Yerramukkapalli, Kadapa - APPCB","27-04-2025 21:00:00",14.465052,78.824187,PM10,39,62,48
India,Andhra_Pradesh,Tirumala,"Toll Gate, Tirumala - APPCB (Formerly known as Tirumala, Tirupati - APPCB)","27-04-2025 21:00:00",13.67,79.35,OZONE,10,51,33
India,Andhra_Pradesh,Tirupati,"Vaikuntapuram, Tirupati - APPCB","27-04-2025 21:00:00",13.615387,79.409230,SO2,12,13,13
India,Andhra_Pradesh,Vijayawada,"HB Colony, Vijayawada - APPCB","27-04-2025 21:00:00",16.536107,80.594233,PM2.5,39,52,44
India,Andhra_Pradesh,Vijayawada,"HB Colony, Vijayawada - APPCB","27-04-2025 21:00:00",16.536107,80.594233,PM10,38,51,43
India,Bihar,Bhagalpur,"DM Office_Kachari Chowk, Bhagalpur - BSPCB","27-04-2025 21:00:00",25.251013,86.989001,PM2.5,NA,NA,NA
India,Bihar,Bhagalpur,"DM Office_Kachari Chowk, Bhagalpur - BSPCB","27-04-2025 21:00:00",25.251013,86.989001,CO,6,14,10
India,Bihar,Bhagalpur,"Mayaganj, Bhagalpur - BSPCB","27-04-2025 21:00:00",25.265194,87.012947,OZONE,2,13,4
India,Bihar,"Bihar Sharif","D M Colony, Bihar Sharif - BSPCB","27-04-2025 21:00:00",25.204762,85.514960,PM2.5,NA,NA,NA
India,Bihar,Buxar,"Charitra Van, Buxar - BSPCB","27-04-2025 21:00:00",25.567520,83.966379,PM2.5,20,380,97
India,Bihar,Buxar,"Charitra Van, Buxar - BSPCB","27-04-2025 21:00:00",25.567520,83.966379,CO,24,28,27
India,Bihar,Chhapra,"Darshan Nagar, Chhapra - BSPCB","27-04-2025 21:00:00",25.7808257,84.7446768,NH3,5,8,6
India,Assam,Byrnihat,"Central Academy for SFS, Byrnihat - PCBA","27-04-2025 21:00:00",26.071318,91.87488,OZONE,22,36,27
India,Assam,Guwahati,"LGBI Airport, Guwahati - PCBA","27-04-2025 21:00:00",26.10887,91.589544,SO2,NA,NA,NA
India,Assam,Guwahati,"LGBI Airport, Guwahati - PCBA","27-04-2025 21:00:00",26.10887,91.589544,OZONE,NA,NA,NA
India,Assam,Guwahati,"Pan Bazaar, Guwahati - PCBA","27-04-2025 21:00:00",26.187500,91.744194,PM2.5,15,91,37
India,Assam,Guwahati,"Pan Bazaar, Guwahati - PCBA","27-04-2025 21:00:00",26.187500,91.744194,PM10,12,72,29
India,Assam,Guwahati,"Pan Bazaar, Guwahati - PCBA","27-04-2025 21:00:00",26.187500,91.744194,OZONE,17,18,17
India,Assam,Guwahati,"Railway Colony, Guwahati - PCBA","27-04-2025 21:00:00",26.181742,91.78063,SO2,20,21,21
India,Assam,Guwahati,"Railway Colony, Guwahati - PCBA","27-04-2025 21:00:00",26.181742,91.78063,CO,20,82,34
India,Andhra_Pradesh,Vijayawada,"HB Colony, Vijayawada - APPCB","27-04-2025 21:00:00",16.536107,80.594233,CO,18,18,18
India,Andhra_Pradesh,Vijayawada,"Kanuru, Vijayawada - APPCB","27-04-2025 21:00:00",16.486692,80.699436,NH3,NA,NA,NA
India,Andhra_Pradesh,Vijayawada,"Rajiv Gandhi Park, Vijayawada - APPCB","27-04-2025 21:00:00",16.509717,80.612222,OZONE,8,23,15
India,Andhra_Pradesh,Vijayawada,"Rajiv Nagar, Vijayawada - APPCB","27-04-2025 21:00:00",16.554731,80.649110,NO2,29,31,30
India,Andhra_Pradesh,Vijayawada,"Rajiv Nagar, Vijayawada - APPCB","27-04-2025 21:00:00",16.554731,80.649110,NH3,4,4,4
India,Andhra_Pradesh,Visakhapatnam,"GVM Corporation, Visakhapatnam - APPCB","27-04-2025 21:00:00",17.72,83.3,SO2,5,13,9
India,Bihar,Arrah,"New DM Office, Arrah - BSPCB","27-04-2025 21:00:00",25.5626095,84.663264,NO2,NA,NA,NA
India,Bihar,Aurangabad,"Gurdeo Nagar, Aurangabad - BSPCB","27-04-2025 21:00:00",24.75746,84.366208,NH3,1,2,2
India,Bihar,Aurangabad,"Gurdeo Nagar, Aurangabad - BSPCB","27-04-2025 21:00:00",24.75746,84.366208,OZONE,15,83,67
India,Bihar,Begusarai,"Lohiyanagar, Begusarai - BSPCB","27-04-2025 21:00:00",25.42742023,86.13886079,PM10,52,110,76
India,Bihar,Bettiah,"Kamalnath Nagar, Bettiah - BSPCB","27-04-2025 21:00:00",26.80365,84.51954,PM10,81,170,117
India,Assam,Nagaon,"Christianpatty, Nagaon - PCBA","27-04-2025 21:00:00",26.349082,92.68449,SO2,8,14,12
India,Assam,Nalbari,"Bata Chowk, Nalbari - PCBA","27-04-2025 21:00:00",26.446912,91.439057,NO2,1,5,3
India,Assam,Silchar,"Tarapur, Silchar - PCBA","27-04-2025 21:00:00",24.82827,92.79525,PM2.5,14,51,32
India,Assam,Silchar,"Tarapur, Silchar - PCBA","27-04-2025 21:00:00",24.82827,92.79525,OZONE,1,8,4
India,Bihar,Araria,"Kharahiya Basti, Araria - BSPCB","27-04-2025 21:00:00",26.146529,87.454184,PM10,NA,NA,NA
India,Bihar,Motihari,"Gandak Colony, Motihari - BSPCB","27-04-2025 21:00:00",26.63086,84.90051,PM2.5,NA,NA,NA
India,Bihar,Munger,"Town Hall, Munger - BSPCB","27-04-2025 21:00:00",25.376776,86.471523,CO,13,48,23
India,Bihar,Muzaffarpur,"Buddha Colony, Muzaffarpur - BSPCB","27-04-2025 21:00:00",26.11442,85.39813,PM2.5,69,199,129
India,Bihar,Muzaffarpur,"Buddha Colony, Muzaffarpur - BSPCB","27-04-2025 21:00:00",26.11442,85.39813,CO,2,42,18
India,Bihar,Muzaffarpur,"MIT-Daudpur Kothi, Muzaffarpur - BSPCB","27-04-2025 21:00:00",26.1403345,85.3650192,PM2.5,NA,NA,NA
India,"Andaman and Nicobar","Sri Vijaya Puram","Police Line, Sri Vijaya Puram - ANPCC","27-04-2025 21:00:00",11.654054,92.734055,PM2.5,1,1,1
India,"Andaman and Nicobar","Sri Vijaya Puram","Police Line, Sri Vijaya Puram - ANPCC","27-04-2025 21:00:00",11.654054,92.734055,CO,12,33,22
India,Andhra_Pradesh,Amaravati,"Secretariat, Amaravati - APPCB","27-04-2025 21:00:00",16.5150833,80.5181667,NH3,NA,NA,NA
India,Andhra_Pradesh,Amaravati,"Secretariat, Amaravati - APPCB","27-04-2025 21:00:00",16.5150833,80.5181667,CO,NA,NA,NA
India,Bihar,Gaya,"Collectorate, Gaya - BSPCB","27-04-2025 21:00:00",24.7955,84.9994,PM2.5,NA,NA,NA
India,Bihar,Gaya,"Kareemganj, Gaya - BSPCB","27-04-2025 21:00:00",24.792403,84.992416,SO2,15,20,18
India,Bihar,Gaya,"Kareemganj, Gaya - BSPCB","27-04-2025 21:00:00",24.792403,84.992416,OZONE,12,62,43
India,Bihar,Kishanganj,"SDM Office_Khagra, Kishanganj - BSPCB","27-04-2025 21:00:00",26.0881305,87.93840336,PM10,27,112,64
India,Delhi,Delhi,"ITO, Delhi - CPCB","27-04-2025 21:00:00",28.628624,77.241060,NH3,8,15,10
India,Delhi,Delhi,"Jahangirpuri, Delhi - DPCC","27-04-2025 21:00:00",28.732820,77.170633,PM2.5,77,308,197
India,Delhi,Delhi,"Jahangirpuri, Delhi - DPCC","27-04-2025 21:00:00",28.732820,77.170633,NH3,3,12,10
India,Delhi,Delhi,"Jawaharlal Nehru Stadium, Delhi - DPCC","27-04-2025 21:00:00",28.580280,77.233829,NO2,26,141,65
India,Delhi,Delhi,"Jawaharlal Nehru Stadium, Delhi - DPCC","27-04-2025 21:00:00",28.580280,77.233829,OZONE,10,73,43
India,Delhi,Delhi,"Lodhi Road, Delhi - IITM","27-04-2025 21:00:00",28.588333,77.221667,PM2.5,66,243,137
India,Delhi,Delhi,"Lodhi Road, Delhi - IITM","27-04-2025 21:00:00",28.588333,77.221667,SO2,1,31,11
India,Delhi,Delhi,"Lodhi Road, Delhi - IMD","27-04-2025 21:00:00",28.5918245,77.2273074,NO2,9,35,17
India,Delhi,Delhi,"Major Dhyan Chand National Stadium, Delhi - DPCC","27-04-2025 21:00:00",28.611281,77.237738,OZONE,1,294,180
India,Chandigarh,Chandigarh,"Sector-53, Chandigarh - CPCC","27-04-2025 21:00:00",30.719859,76.738637,NH3,3,4,3
India,Chandigarh,Chandigarh,"Sector-53, Chandigarh - CPCC","27-04-2025 21:00:00",30.719859,76.738637,CO,29,108,53
India,Chhattisgarh,Bhilai,"32Bungalows, Bhilai - CECB","27-04-2025 21:00:00",21.194815,81.314770,NH3,3,3,3
India,Chhattisgarh,Bhilai,"32Bungalows, Bhilai - CECB","27-04-2025 21:00:00",21.194815,81.314770,SO2,8,35,10
India,Chhattisgarh,Bhilai,"Civic Center, Bhilai - Bhilai Steel Plant","27-04-2025 21:00:00",21.185571,81.343175,OZONE,12,24,20
India,Chhattisgarh,Bhilai,"Hathkhoj, Bhilai - CECB","27-04-2025 21:00:00",21.224231,81.408350,NO2,14,53,27
India,Chhattisgarh,Bilaspur,"Mangala, Bilaspur - NTPC","27-04-2025 21:00:00",22.08815,82.13737,PM2.5,38,91,53
India,Chhattisgarh,Bilaspur,"Mangala, Bilaspur - NTPC","27-04-2025 21:00:00",22.08815,82.13737,PM10,27,73,46
India,Chhattisgarh,Bilaspur,"Mangala, Bilaspur - NTPC","27-04-2025 21:00:00",22.08815,82.13737,SO2,NA,NA,NA
India,Delhi,Delhi,"DTU, Delhi - CPCB","27-04-2025 21:00:00",28.7500499,77.1112615,NO2,43,58,48
India,Delhi,Delhi,"Dr. Karni Singh Shooting Range, Delhi - DPCC","27-04-2025 21:00:00",28.498571,77.264840,PM10,117,394,220
India,Delhi,Delhi,"Dr. Karni Singh Shooting Range, Delhi - DPCC","27-04-2025 21:00:00",28.498571,77.264840,CO,24,79,43
India,Delhi,Delhi,"Dwarka-Sector 8, Delhi - DPCC ","27-04-2025 21:00:00",28.5710274,77.0719006,NO2,45,172,67
India,Delhi,Delhi,"Dwarka-Sector 8, Delhi - DPCC ","27-04-2025 21:00:00",28.5710274,77.0719006,NH3,13,18,15
India,Delhi,Delhi,"IGI Airport (T3), Delhi - IMD","27-04-2025 21:00:00",28.5627763,77.1180053,PM10,111,216,159
India,Delhi,Delhi,"IGI Airport (T3), Delhi - IMD","27-04-2025 21:00:00",28.5627763,77.1180053,NO2,37,110,77
India,Delhi,Delhi,"IHBAS, Dilshad Garden, Delhi - CPCB","27-04-2025 21:00:00",28.6811736,77.3025234,SO2,8,12,10
India,Bihar,Patna,"Rajbansi Nagar, Patna - BSPCB","27-04-2025 21:00:00",25.599486,85.113666,NO2,14,97,34
India,Bihar,Purnia,"Mariam Nagar, Purnia - BSPCB","27-04-2025 21:00:00",25.366336,87.117468,SO2,9,83,36
India,Bihar,Purnia,"Mariam Nagar, Purnia - BSPCB","27-04-2025 21:00:00",25.366336,87.117468,OZONE,11,57,25
India,Bihar,Rajgir,"Dangi Tola, Rajgir - BSPCB","27-04-2025 21:00:00",25.03280,85.41948,NO2,9,10,9
India,Bihar,Rajgir,"Dangi Tola, Rajgir - BSPCB","27-04-2025 21:00:00",25.03280,85.41948,OZONE,28,40,35
India,Bihar,Saharsa,"Police Line, Saharsa - BSPCB","27-04-2025 21:00:00",25.892357,86.590325,NH3,4,4,4
India,Bihar,Saharsa,"Police Line, Saharsa - BSPCB","27-04-2025 21:00:00",25.892357,86.590325,SO2,2,16,10
India,Delhi,Delhi,"Aya Nagar, Delhi - IMD","27-04-2025 21:00:00",28.4706914,77.1099364,PM2.5,16,266,154
India,Delhi,Delhi,"Bawana, Delhi - DPCC","27-04-2025 21:00:00",28.776200,77.051074,SO2,16,90,40
India,Delhi,Delhi,"Burari Crossing, Delhi - IMD","27-04-2025 21:00:00",28.7256504,77.2011573,NO2,36,130,64
India,Delhi,Delhi,"Burari Crossing, Delhi - IMD","27-04-2025 21:00:00",28.7256504,77.2011573,CO,28,94,43
India,Delhi,Delhi,"CRRI Mathura Road, Delhi - IMD","27-04-2025 21:00:00",28.5512005,77.2735737,CO,10,113,44
India,Delhi,Delhi,"Chandni Chowk, Delhi - IITM","27-04-2025 21:00:00",28.656756,77.227234,NH3,NA,NA,NA
India,Chhattisgarh,Raipur,"Krishak Nagar, Raipur - CECB","27-04-2025 21:00:00",21.237755,81.705301,OZONE,3,41,24
India,Chhattisgarh,Raipur,"Siltara Phase-II, Raipur - CECB","27-04-2025 21:00:00",21.371751,81.664929,NO2,NA,NA,NA
India,Delhi,Delhi,"Alipur, Delhi - DPCC","27-04-2025 21:00:00",28.815329,77.153010,OZONE,7,25,11
India,Delhi,Delhi,"Anand Vihar, Delhi - DPCC","27-04-2025 21:00:00",28.647622,77.3158090,OZONE,1,89,53
India,Delhi,Delhi,"Ashok Vihar, Delhi - DPCC","27-04-2025 21:00:00",28.695381,77.181665,PM10,133,403,253
India,Delhi,Delhi,"Mandir Marg, Delhi - DPCC","27-04-2025 21:00:00",28.636429,77.201067,PM10,58,226,131
India,Delhi,Delhi,"Mandir Marg, Delhi - DPCC","27-04-2025 21:00:00",28.636429,77.201067,NO2,16,119,49
India,Delhi,Delhi,"Mandir Marg, Delhi - DPCC","27-04-2025 21:00:00",28.636429,77.201067,SO2,7,53,21
India,Delhi,Delhi,"Mundka, Delhi - DPCC","27-04-2025 21:00:00",28.684678,77.076574,PM10,138,440,306
India,Delhi,Delhi,"NSIT Dwarka, Delhi - CPCB","27-04-2025 21:00:00",28.60909,77.0325413,OZONE,5,71,54
India,Delhi,Delhi,"Najafgarh, Delhi - DPCC","27-04-2025 21:00:00",28.570173,76.933762,CO,29,50,32
India,Bihar,Siwan,"Chitragupta Nagar, Siwan - BSPCB","27-04-2025 21:00:00",26.2271665,84.3570427,SO2,NA,NA,NA
India,Chandigarh,Chandigarh,"Sector 22, Chandigarh - CPCC","27-04-2025 21:00:00",30.735567,76.775714,NO2,14,160,56
India,Chandigarh,Chandigarh,"Sector 22, Chandigarh - CPCC","27-04-2025 21:00:00",30.735567,76.775714,NH3,13,20,17
India,Chandigarh,Chandigarh,"Sector-53, Chandigarh - CPCC","27-04-2025 21:00:00",30.719859,76.738637,PM2.5,27,150,69
India,Chhattisgarh,Chhal,"Nawapara SECL Colony, Chhal - CECB","27-04-2025 21:00:00",22.118125,83.140608,PM2.5,25,83,41
India,Chhattisgarh,Chhal,"Nawapara SECL Colony, Chhal - CECB","27-04-2025 21:00:00",22.118125,83.140608,NO2,7,16,10
India,Chhattisgarh,Chhal,"Nawapara SECL Colony, Chhal - CECB","27-04-2025 21:00:00",22.118125,83.140608,CO,28,30,28
India,Chhattisgarh,Korba,"Urja Nagar, Korba - CECB","27-04-2025 21:00:00",22.348441,82.549611,NO2,NA,NA,NA
India,Gujarat,Surat,"Science Center, Surat - SMC","27-04-2025 21:00:00",21.170046,72.795405,CO,34,42,39
India,Gujarat,Vapi,"Phase-1 GIDC, Vapi - GPCB","27-04-2025 21:00:00",20.362421,72.918013,NO2,13,14,14
India,Gujarat,Vapi,"Phase-1 GIDC, Vapi - GPCB","27-04-2025 21:00:00",20.362421,72.918013,NH3,10,10,10
India,Gujarat,Vapi,"Phase-1 GIDC, Vapi - GPCB","27-04-2025 21:00:00",20.362421,72.918013,SO2,32,37,35
India,Gujarat,Vapi,"Phase-1 GIDC, Vapi - GPCB","27-04-2025 21:00:00",20.362421,72.918013,OZONE,2,2,2
India,Gujarat,Vatva,"Phase-4 GIDC, Vatva - GPCB","27-04-2025 21:00:00",22.969611,72.643500,NO2,17,36,22
India,Gujarat,Vatva,"Phase-4 GIDC, Vatva - GPCB","27-04-2025 21:00:00",22.969611,72.643500,CO,17,18,17
India,Gujarat,Vatva,"Phase-4 GIDC, Vatva - GPCB","27-04-2025 21:00:00",22.969611,72.643500,OZONE,2,15,8
India,Haryana,Gurugram,"NISE Gwal Pahari, Gurugram - IMD","27-04-2025 21:00:00",28.422681,77.148944,OZONE,3,126,88
India,Jammu_and_Kashmir,Srinagar,"Rajbagh, Srinagar - JKSPCB","27-04-2025 21:00:00",34.066206,74.819820,PM10,32,73,44
India,Jharkhand,Dhanbad,"Sardar Patel Nagar, Dhanbad - JSPCB","27-04-2025 21:00:00",23.80569,86.44268,PM2.5,1,88,21
India,Jharkhand,Dhanbad,"Sardar Patel Nagar, Dhanbad - JSPCB","27-04-2025 21:00:00",23.80569,86.44268,SO2,NA,NA,NA
India,Karnataka,Bagalkot,"Vidayagiri, Bagalkot - KSPCB","27-04-2025 21:00:00",16.172806,75.659694,PM2.5,33,34,33
India,Karnataka,Bagalkot,"Vidayagiri, Bagalkot - KSPCB","27-04-2025 21:00:00",16.172806,75.659694,NO2,9,10,9
India,Karnataka,Bagalkot,"Vidayagiri, Bagalkot - KSPCB","27-04-2025 21:00:00",16.172806,75.659694,NH3,1,2,1
India,Karnataka,Belgaum,"Ramteerth Nagar, Belgaum - KSPCB","27-04-2025 21:00:00",15.888653,74.541751,OZONE,18,20,19
India,Karnataka,Bengaluru,"BTM Layout, Bengaluru - CPCB","27-04-2025 21:00:00",12.9135218,77.5950804,NH3,7,9,8
India,Karnataka,Bengaluru,"Bapuji Nagar, Bengaluru - KSPCB","27-04-2025 21:00:00",12.951913,77.539784,NO2,4,8,6
India,Karnataka,Bengaluru,"City Railway Station, Bengaluru - KSPCB","27-04-2025 21:00:00",12.9756843,77.5660749,PM10,91,104,98
India,Gujarat,Ahmedabad,"Rakhial, Ahmedabad - IITM","27-04-2025 21:00:00",23.016834,72.625775,NH3,8,9,8
India,Gujarat,Ahmedabad,"Rakhial, Ahmedabad - IITM","27-04-2025 21:00:00",23.016834,72.625775,SO2,28,121,66
India,Gujarat,Ahmedabad,"Rakhial, Ahmedabad - IITM","27-04-2025 21:00:00",23.016834,72.625775,OZONE,3,133,87
India,Gujarat,Ahmedabad,"SAC ISRO Satellite, Ahmedabad - IITM","27-04-2025 21:00:00",23.023389,72.515201,PM10,89,129,108
India,Gujarat,Ahmedabad,"SAC ISRO Satellite, Ahmedabad - IITM","27-04-2025 21:00:00",23.023389,72.515201,CO,1,22,11
India,Gujarat,Ahmedabad,"SVPI Airport Hansol, Ahmedabad - IITM","27-04-2025 21:00:00",23.076793,72.627874,PM2.5,55,94,69
India,Gujarat,Ahmedabad,"Sardar Vallabhbhai Patel Stadium, Ahmedabad - IITM","27-04-2025 21:00:00",23.043070,72.562968,PM2.5,59,117,89
India,Gujarat,Ankleshwar,"GIDC, Ankleshwar - GPCB","27-04-2025 21:00:00",21.613267,73.010555,NO2,61,108,77
India,Gujarat,Gandhinagar,"GIFT City, Gandhinagar - IITM","27-04-2025 21:00:00",23.163798,72.677768,PM2.5,73,246,104
India,Gujarat,Gandhinagar,"GIFT City, Gandhinagar - IITM","27-04-2025 21:00:00",23.163798,72.677768,PM10,67,138,86
India,Gujarat,Gandhinagar,"GIFT City, Gandhinagar - IITM","27-04-2025 21:00:00",23.163798,72.677768,OZONE,4,48,38
India,Gujarat,Gandhinagar,"Sector-10, Gandhinagar - GPCB","27-04-2025 21:00:00",23.221714,72.654328,NH3,3,3,3
India,Gujarat,Gandhinagar,"Sector-10, Gandhinagar - GPCB","27-04-2025 21:00:00",23.221714,72.654328,OZONE,37,38,37
India,Gujarat,Surat,"Science Center, Surat - SMC","27-04-2025 21:00:00",21.170046,72.795405,SO2,39,41,40
India,Delhi,Delhi,"Vivek Vihar, Delhi - DPCC","27-04-2025 21:00:00",28.672342,77.315260,OZONE,2,224,145
India,Delhi,Delhi,"Wazirpur, Delhi - DPCC","27-04-2025 21:00:00",28.699793,77.165453,CO,2,126,74
India,Gujarat,Ahmedabad,"Chandkheda, Ahmedabad - IITM","27-04-2025 21:00:00",23.107969,72.574648,NO2,52,149,66
India,Gujarat,Ahmedabad,"Chandkheda, Ahmedabad - IITM","27-04-2025 21:00:00",23.107969,72.574648,SO2,14,34,23
India,Gujarat,Ahmedabad,"Gyaspur, Ahmedabad - IITM","27-04-2025 21:00:00",22.977134,72.553024,NH3,1,16,5
India,Gujarat,Ahmedabad,"Maninagar, Ahmedabad - GPCB","27-04-2025 21:00:00",23.002657,72.591912,PM2.5,34,179,90
India,Delhi,Delhi,"Nehru Nagar, Delhi - DPCC","27-04-2025 21:00:00",28.567890,77.250515,CO,7,113,38
India,Delhi,Delhi,"Nehru Nagar, Delhi - DPCC","27-04-2025 21:00:00",28.567890,77.250515,OZONE,3,280,185
India,Delhi,Delhi,"North Campus, DU, Delhi - IMD","27-04-2025 21:00:00",28.6573814,77.1585447,NO2,49,152,109
India,Delhi,Delhi,"North Campus, DU, Delhi - IMD","27-04-2025 21:00:00",28.6573814,77.1585447,OZONE,4,300,172
India,Delhi,Delhi,"Okhla Phase-2, Delhi - DPCC","27-04-2025 21:00:00",28.530785,77.271255,SO2,8,38,25
India,Delhi,Delhi,"Patparganj, Delhi - DPCC","27-04-2025 21:00:00",28.623763,77.287209,PM2.5,NA,NA,NA
India,Delhi,Delhi,"Punjabi Bagh, Delhi - DPCC","27-04-2025 21:00:00",28.674045,77.131023,NH3,4,5,5
India,Delhi,Delhi,"Punjabi Bagh, Delhi - DPCC","27-04-2025 21:00:00",28.674045,77.131023,OZONE,4,70,37
India,Delhi,Delhi,"Pusa, Delhi - DPCC","27-04-2025 21:00:00",28.639652,77.146275,OZONE,4,98,71
India,Delhi,Delhi,"Rohini, Delhi - DPCC","27-04-2025 21:00:00",28.732528,77.119920,NO2,8,175,52
India,Delhi,Delhi,"Rohini, Delhi - DPCC","27-04-2025 21:00:00",28.732528,77.119920,NH3,8,11,9
India,Karnataka,Bengaluru,"Jayanagar 5th Block, Bengaluru - KSPCB","27-04-2025 21:00:00",12.920984,77.584908,PM2.5,40,64,51
India,Karnataka,Bengaluru,"Jigani, Bengaluru - KSPCB","27-04-2025 21:00:00",12.7816279,77.6299145,PM10,42,129,83
India,Delhi,Delhi,"Sri Aurobindo Marg, Delhi - DPCC","27-04-2025 21:00:00",28.531346,77.190156,PM2.5,50,203,103
India,Karnataka,Mysuru,"Hebbal 1st Stage, Mysuru - KSPCB","27-04-2025 21:00:00",12.21041,76.37376,NH3,3,7,5
India,Karnataka,Mysuru,"Hebbal 1st Stage, Mysuru - KSPCB","27-04-2025 21:00:00",12.21041,76.37376,OZONE,10,86,59
India,Karnataka,Shivamogga,"Vinoba Nagara, Shivamogga - KSPCB","27-04-2025 21:00:00",13.940000,75.555917,PM10,48,60,58
India,Karnataka,Shivamogga,"Vinoba Nagara, Shivamogga - KSPCB","27-04-2025 21:00:00",13.940000,75.555917,NO2,22,35,29
India,Karnataka,Shivamogga,"Vinoba Nagara, Shivamogga - KSPCB","27-04-2025 21:00:00",13.940000,75.555917,CO,22,39,27
India,Karnataka,Yadgir,"Collector Office, Yadgir - KSPCB","27-04-2025 21:00:00",16.7602,77.1428,NO2,23,75,50
India,Karnataka,Yadgir,"Collector Office, Yadgir - KSPCB","27-04-2025 21:00:00",16.7602,77.1428,SO2,3,20,13
India,Kerala,Eloor,"Udyogamandal, Eloor - Kerala PCB","27-04-2025 21:00:00",10.073232,76.302765,NH3,1,1,1
India,Kerala,Kannur,"Thavakkara, Kannur - Kerala PCB","27-04-2025 21:00:00",11.875000,75.373200,PM2.5,50,56,53
India,Kerala,Kannur,"Thavakkara, Kannur - Kerala PCB","27-04-2025 21:00:00",11.875000,75.373200,NO2,15,18,16
India,Kerala,Kannur,"Thavakkara, Kannur - Kerala PCB","27-04-2025 21:00:00",11.875000,75.373200,NH3,2,2,2
India,Kerala,Kannur,"Thavakkara, Kannur - Kerala PCB","27-04-2025 21:00:00",11.875000,75.373200,SO2,6,7,7
India,"Madhya Pradesh",Gwalior,"City Center, Gwalior - MPPCB","27-04-2025 21:00:00",26.203442,78.193251,NH3,1,2,2
India,"Madhya Pradesh",Gwalior,"City Center, Gwalior - MPPCB","27-04-2025 21:00:00",26.203442,78.193251,OZONE,29,113,93
India,"Madhya Pradesh",Gwalior,"Deen Dayal Nagar, Gwalior - MPPCB","27-04-2025 21:00:00",26.259242,78.216432,PM2.5,52,330,167
India,"Madhya Pradesh",Gwalior,"Deen Dayal Nagar, Gwalior - MPPCB","27-04-2025 21:00:00",26.259242,78.216432,PM10,58,246,132
India,"Madhya Pradesh",Gwalior,"Maharaj Bada, Gwalior - MPPCB","27-04-2025 21:00:00",26.200388,78.147714,SO2,12,31,19
India,"Madhya Pradesh",Gwalior,"Maharaj Bada, Gwalior - MPPCB","27-04-2025 21:00:00",26.200388,78.147714,CO,2,126,102
India,"Madhya Pradesh",Gwalior,"Maharaj Bada, Gwalior - MPPCB","27-04-2025 21:00:00",26.200388,78.147714,OZONE,8,137,86
India,"Madhya Pradesh",Indore,"Airport Area, Indore - IMC","27-04-2025 21:00:00",22.7289,75.8076,SO2,16,17,16
India,"Madhya Pradesh",Indore,"Airport Area, Indore - IMC","27-04-2025 21:00:00",22.7289,75.8076,OZONE,6,25,20
India,"Madhya Pradesh",Indore,"Chhoti Gwaltoli, Indore - MPPCB","27-04-2025 21:00:00",22.4310,75.5213,PM2.5,41,103,70
India,"Madhya Pradesh",Indore,"Chhoti Gwaltoli, Indore - MPPCB","27-04-2025 21:00:00",22.4310,75.5213,PM10,84,145,122
India,"Madhya Pradesh",Indore,"Maguda Nagar, Indore - IMC","27-04-2025 21:00:00",22.7524,75.8872,PM10,26,66,42
India,"Madhya Pradesh",Indore,"Maguda Nagar, Indore - IMC","27-04-2025 21:00:00",22.7524,75.8872,SO2,33,37,35
India,"Madhya Pradesh",Indore,"Maguda Nagar, Indore - IMC","27-04-2025 21:00:00",22.7524,75.8872,CO,31,35,32
India,"Madhya Pradesh",Indore,"Maguda Nagar, Indore - IMC","27-04-2025 21:00:00",22.7524,75.8872,OZONE,10,21,17
India,"Madhya Pradesh",Indore,"Regional Park, Indore - IMC","27-04-2025 21:00:00",22.6780,75.8559,CO,36,43,37
India,"Madhya Pradesh",Indore,"Regional Park, Indore - IMC","27-04-2025 21:00:00",22.6780,75.8559,OZONE,6,16,14
India,"Madhya Pradesh",Indore,"Residency Area, Indore - IMC","27-04-2025 21:00:00",22.7084,75.8815,PM10,43,106,76
India,"Madhya Pradesh",Indore,"Residency Area, Indore - IMC","27-04-2025 21:00:00",22.7084,75.8815,SO2,31,34,33
India,"Madhya Pradesh",Indore,"Vijay Nagar Scheme-78, Indore - Glenmark","27-04-2025 21:00:00",22.76726,75.88710,PM10,37,44,40
India,"Madhya Pradesh",Jabalpur,"Govindh Bhavan Colony, Jabalpur - JMC","27-04-2025 21:00:00",23.163174,79.973061,PM10,21,88,54
India,"Madhya Pradesh",Jabalpur,"Govindh Bhavan Colony, Jabalpur - JMC","27-04-2025 21:00:00",23.163174,79.973061,SO2,1,25,4
India,Karnataka,Hubballi,"Lingaraj Nagar, Hubballi - KSPCB","27-04-2025 21:00:00",15.3714823,75.1160168,PM2.5,34,36,34
India,Karnataka,Hubballi,"Lingaraj Nagar, Hubballi - KSPCB","27-04-2025 21:00:00",15.3714823,75.1160168,NO2,7,7,7
India,Karnataka,Hubballi,"Lingaraj Nagar, Hubballi - KSPCB","27-04-2025 21:00:00",15.3714823,75.1160168,NH3,1,1,1
India,Karnataka,Hubballi,"Lingaraj Nagar, Hubballi - KSPCB","27-04-2025 21:00:00",15.3714823,75.1160168,CO,7,22,17
India,Karnataka,Kalaburagi,"Mahatma Basaveswar Colony, Kalaburgi - KSPCB","27-04-2025 21:00:00",17.336318,76.847397,PM10,31,48,38
India,Karnataka,Kalaburagi,"Mahatma Basaveswar Colony, Kalaburgi - KSPCB","27-04-2025 21:00:00",17.336318,76.847397,NO2,11,20,14
India,Karnataka,Koppal,"Diwator Nagar, Koppal - KSPCB","27-04-2025 21:00:00",15.347630,76.181767,CO,48,62,56
India,Karnataka,Madikeri,"Stuart Hill, Madikeri - KSPCB","27-04-2025 21:00:00",12.415911,75.735050,CO,12,18,15
India,Karnataka,Mysuru,"Hebbal 1st Stage, Mysuru - KSPCB","27-04-2025 21:00:00",12.21041,76.37376,PM10,29,69,36
India,"Madhya Pradesh",Bhopal,"Idgah Hills, Bhopal - MPPCB","27-04-2025 21:00:00",23.264759,77.381568,PM10,NA,NA,NA
India,"Madhya Pradesh",Bhopal,"Idgah Hills, Bhopal - MPPCB","27-04-2025 21:00:00",23.264759,77.381568,SO2,NA,NA,NA
India,"Madhya Pradesh",Bhopal,"T T Nagar, Bhopal - MPPCB","27-04-2025 21:00:00",23.233584,77.400574,PM10,98,211,132
India,"Madhya Pradesh",Damoh,"Shrivastav Colony, Damoh - MPPCB","27-04-2025 21:00:00",23.81748678,79.446246,PM10,20,126,65
India,"Madhya Pradesh",Damoh,"Shrivastav Colony, Damoh - MPPCB","27-04-2025 21:00:00",23.81748678,79.446246,CO,20,109,39
India,"Madhya Pradesh",Dewas,"Bhopal Chauraha, Dewas - MPPCB","27-04-2025 21:00:00",22.9682591,76.064118,PM10,70,175,121
India,"Madhya Pradesh",Dewas,"Bhopal Chauraha, Dewas - MPPCB","27-04-2025 21:00:00",22.9682591,76.064118,NO2,63,101,78
India,"Madhya Pradesh",Dewas,"Bhopal Chauraha, Dewas - MPPCB","27-04-2025 21:00:00",22.9682591,76.064118,NH3,6,10,9
India,"Madhya Pradesh",Dewas,"Bhopal Chauraha, Dewas - MPPCB","27-04-2025 21:00:00",22.9682591,76.064118,SO2,50,114,85
India,"Madhya Pradesh",Dewas,"Bhopal Chauraha, Dewas - MPPCB","27-04-2025 21:00:00",22.9682591,76.064118,CO,13,44,20
India,Kerala,Kannur,"Thavakkara, Kannur - Kerala PCB","27-04-2025 21:00:00",11.875000,75.373200,OZONE,26,31,28
India,Kerala,Kollam,"Polayathode, Kollam - Kerala PCB","27-04-2025 21:00:00",8.8787,76.6073,NH3,1,1,1
India,Kerala,Kollam,"Polayathode, Kollam - Kerala PCB","27-04-2025 21:00:00",8.8787,76.6073,SO2,1,3,2
India,Kerala,Thiruvananthapuram,"Kariavattom, Thiruvananthapuram - Kerala PCB","27-04-2025 21:00:00",8.563700,76.886500,PM2.5,38,43,40
India,Kerala,Thiruvananthapuram,"Plammoodu, Thiruvananthapuram - Kerala PCB","27-04-2025 21:00:00",8.5149093,76.9435879,PM2.5,8,53,24
India,Kerala,Thiruvananthapuram,"Plammoodu, Thiruvananthapuram - Kerala PCB","27-04-2025 21:00:00",8.5149093,76.9435879,PM10,11,49,28
India,Kerala,Thiruvananthapuram,"Plammoodu, Thiruvananthapuram - Kerala PCB","27-04-2025 21:00:00",8.5149093,76.9435879,OZONE,6,23,14
India,Kerala,Thrissur,"Corporation Ground, Thrissur - Kerala PCB","27-04-2025 21:00:00",10.532400,76.215900,NO2,NA,NA,NA
India,Karnataka,Bengaluru,"Kasturi Nagar, Bengaluru - KSPCB","27-04-2025 21:00:00",13.003872,77.664217,SO2,8,9,9
India,Karnataka,Bengaluru,"Kasturi Nagar, Bengaluru - KSPCB","27-04-2025 21:00:00",13.003872,77.664217,OZONE,28,29,29
India,Karnataka,Bengaluru,"Peenya, Bengaluru - CPCB","27-04-2025 21:00:00",13.0270199,77.494094,SO2,3,14,7
India,Karnataka,Bengaluru,"RVCE-Mailasandra, Bengaluru - KSPCB","27-04-2025 21:00:00",12.921418,77.502466,CO,34,44,37
India,Karnataka,Bengaluru,"Shivapura_Peenya, Bengaluru - KSPCB","27-04-2025 21:00:00",13.0246342,77.5080115,PM10,NA,NA,NA
India,Karnataka,Bengaluru,"Shivapura_Peenya, Bengaluru - KSPCB","27-04-2025 21:00:00",13.0246342,77.5080115,NO2,8,12,8
India,Karnataka,Bengaluru,"Shivapura_Peenya, Bengaluru - KSPCB","27-04-2025 21:00:00",13.0246342,77.5080115,NH3,2,2,2
India,Karnataka,Bengaluru,"Shivapura_Peenya, Bengaluru - KSPCB","27-04-2025 21:00:00",13.0246342,77.5080115,CO,30,40,32
India,Karnataka,Chamarajanagar,"Urban, Chamarajanagar - KSPCB","27-04-2025 21:00:00",11.55358,76.55521,PM10,44,46,45
India,Karnataka,Chikkamagaluru,"Kalyana Nagara, Chikkamagaluru - KSPCB","27-04-2025 21:00:00",13.328028,75.797056,PM2.5,NA,NA,NA
India,Karnataka,Chikkamagaluru,"Kalyana Nagara, Chikkamagaluru - KSPCB","27-04-2025 21:00:00",13.328028,75.797056,SO2,NA,NA,NA
India,Karnataka,Dharwad,"Kalabhavan, Dharwad - KSPCB","27-04-2025 21:00:00",15.459706,75.008381,NO2,22,22,22
India,"Madhya Pradesh",Jabalpur,"Suhagi, Jabalpur - JMC","27-04-2025 21:00:00",23.218135,79.957770,PM10,44,133,84
India,"Madhya Pradesh",Katni,"Gole Bazar, Katni - MPPCB","27-04-2025 21:00:00",23.50016,80.23284,CO,21,84,29
India,Maharashtra,Jalgaon,"Prabhat Colony, Jalgaon - MPCB","27-04-2025 21:00:00",21.001264,75.565602,NO2,6,81,24
India,Maharashtra,Jalgaon,"Prabhat Colony, Jalgaon - MPCB","27-04-2025 21:00:00",21.001264,75.565602,SO2,17,27,21
India,Maharashtra,Jalgaon,"Prabhat Colony, Jalgaon - MPCB","27-04-2025 21:00:00",21.001264,75.565602,CO,9,28,20
India,Maharashtra,Jalgaon,"Prabhat Colony, Jalgaon - MPCB","27-04-2025 21:00:00",21.001264,75.565602,OZONE,3,94,71
India,Maharashtra,Jalna,"Old MIDC, Jalna - MPCB","27-04-2025 21:00:00",19.854616,75.905894,PM2.5,44,134,83
India,Maharashtra,Jalna,"Old MIDC, Jalna - MPCB","27-04-2025 21:00:00",19.854616,75.905894,PM10,41,101,67
India,Maharashtra,Kalyan,"Khadakpada, Kalyan - MPCB","27-04-2025 21:00:00",19.25292,73.142019,NH3,1,1,1
India,Maharashtra,Kalyan,"Pimpleshwar Mandir, Kalyan - MPCB","27-04-2025 21:00:00",19.192056,72.9585188,NH3,1,2,2
India,Maharashtra,Kalyan,"Pimpleshwar Mandir, Kalyan - MPCB","27-04-2025 21:00:00",19.192056,72.9585188,OZONE,1,120,61
India,Maharashtra,Kolhapur,"Shivaji University, Kolhapur - MPCB","27-04-2025 21:00:00",16.6870449,74.2505872,PM2.5,32,70,52
India,Maharashtra,Kolhapur,"Shivaji University, Kolhapur - MPCB","27-04-2025 21:00:00",16.6870449,74.2505872,PM10,25,76,56
India,Maharashtra,Kolhapur,"Shivaji University, Kolhapur - MPCB","27-04-2025 21:00:00",16.6870449,74.2505872,NO2,1,1,1
India,Maharashtra,Amravati,"Shri Shivaji Science College, Amaravati - MPCB","27-04-2025 21:00:00",20.939198,77.765701,OZONE,9,92,73
India,Maharashtra,Aurangabad,"MIDC Chilkalthana, Aurangabad - MPCB","27-04-2025 21:00:00",19.875620,75.387310,NH3,1,2,2
India,Maharashtra,Aurangabad,"MIDC Chilkalthana, Aurangabad - MPCB","27-04-2025 21:00:00",19.875620,75.387310,SO2,1,18,9
