country,state,city,station,last_update,latitude,longitude,pollutant_id,pollutant_min,pollutant_max,pollutant_avg
India,Andhra_Pradesh,Vijayawada,"Rajiv Gandhi Park, Vijayawada - APPCB","29-03-2025 16:00:00",16.509717,80.612222,PM10,67,99,80
India,Andhra_Pradesh,Vijayawada,"Rajiv Gandhi Park, Vijayawada - APPCB","29-03-2025 16:00:00",16.509717,80.612222,NO2,45,68,56
India,Andhra_Pradesh,Vijayawada,"Rajiv Gandhi Park, Vijayawada - APPCB","29-03-2025 16:00:00",16.509717,80.612222,NH3,2,5,3
India,Andhra_Pradesh,Visakhapatnam,"GVM Corporation, Visakhapatnam - APPCB","29-03-2025 16:00:00",17.72,83.3,PM2.5,48,106,74
India,Andhra_Pradesh,Visakhapatnam,"GVM Corporation, Visakhapatnam - APPCB","29-03-2025 16:00:00",17.72,83.3,NO2,40,70,55
India,Andhra_Pradesh,Visakhapatnam,"GVM Corporation, Visakhapatnam - APPCB","29-03-2025 16:00:00",17.72,83.3,CO,12,88,32
India,Arunachal_Pradesh,Naharlagun,"Naharlagun, Naharlagun - APSPCB","29-03-2025 16:00:00",27.103358,93.679645,PM2.5,60,179,97
India,Assam,Byrnihat,"Central Academy for SFS, Byrnihat - PCBA","29-03-2025 16:00:00",26.071318,91.87488,PM10,63,289,134
India,Andhra_Pradesh,Tirumala,"Toll Gate, Tirumala - APPCB (Formerly known as Tirumala, Tirupati - APPCB)","29-03-2025 16:00:00",13.67,79.35,NH3,1,2,1
India,Andhra_Pradesh,Tirumala,"Toll Gate, Tirumala - APPCB (Formerly known as Tirumala, Tirupati - APPCB)","29-03-2025 16:00:00",13.67,79.35,SO2,6,30,15
India,Andhra_Pradesh,Tirumala,"Toll Gate, Tirumala - APPCB (Formerly known as Tirumala, Tirupati - APPCB)","29-03-2025 16:00:00",13.67,79.35,CO,21,22,22
India,Andhra_Pradesh,Tirupati,"Vaikuntapuram, Tirupati - APPCB","29-03-2025 16:00:00",13.615387,79.409230,PM10,63,131,101
India,Andhra_Pradesh,Vijayawada,"HB Colony, Vijayawada - APPCB","29-03-2025 16:00:00",16.536107,80.594233,OZONE,18,46,31
India,Andhra_Pradesh,Vijayawada,"Kanuru, Vijayawada - APPCB","29-03-2025 16:00:00",16.486692,80.699436,NH3,4,6,5
India,"Andaman and Nicobar","Sri Vijaya Puram","Police Line, Sri Vijaya Puram - ANPCC","29-03-2025 16:00:00",11.654054,92.734055,PM10,46,106,70
India,Andhra_Pradesh,Amaravati,"Secretariat, Amaravati - APPCB","29-03-2025 16:00:00",16.5150833,80.5181667,NO2,7,19,12
India,Andhra_Pradesh,Amaravati,"Secretariat, Amaravati - APPCB","29-03-2025 16:00:00",16.5150833,80.5181667,NH3,4,5,4
India,Andhra_Pradesh,Anantapur,"Gulzarpet, Anantapur - APPCB","29-03-2025 16:00:00",14.675886,77.593027,PM10,38,79,69
India,Andhra_Pradesh,Anantapur,"Gulzarpet, Anantapur - APPCB","29-03-2025 16:00:00",14.675886,77.593027,NO2,27,68,42
India,Assam,Nalbari,"Bata Chowk, Nalbari - PCBA","29-03-2025 16:00:00",26.446912,91.439057,OZONE,5,19,13
India,Assam,Sivasagar,"Girls College, Sivasagar - PCBA","29-03-2025 16:00:00",26.987634,94.636574,NO2,50,69,61
India,Assam,Sivasagar,"Girls College, Sivasagar - PCBA","29-03-2025 16:00:00",26.987634,94.636574,SO2,6,10,8
India,Assam,Sivasagar,"Girls College, Sivasagar - PCBA","29-03-2025 16:00:00",26.987634,94.636574,CO,15,39,23
India,Bihar,Araria,"Kharahiya Basti, Araria - BSPCB","29-03-2025 16:00:00",26.146529,87.454184,PM10,85,149,118
India,Andhra_Pradesh,Chittoor,"Gangineni Cheruvu, Chittoor - APPCB","29-03-2025 16:00:00",13.204880,79.097889,PM10,67,131,94
India,Andhra_Pradesh,Chittoor,"Gangineni Cheruvu, Chittoor - APPCB","29-03-2025 16:00:00",13.204880,79.097889,SO2,2,3,2
India,Andhra_Pradesh,Kadapa,"Yerramukkapalli, Kadapa - APPCB","29-03-2025 16:00:00",14.465052,78.824187,NH3,5,6,5
India,Andhra_Pradesh,Rajamahendravaram,"Anand Kala Kshetram, Rajamahendravaram - APPCB","29-03-2025 16:00:00",16.9872867,81.7363176,NO2,6,36,20
India,Bihar,Begusarai,"Lohiyanagar, Begusarai - BSPCB","29-03-2025 16:00:00",25.42742023,86.13886079,NO2,43,98,70
India,Bihar,Begusarai,"Lohiyanagar, Begusarai - BSPCB","29-03-2025 16:00:00",25.42742023,86.13886079,NH3,10,15,12
India,Bihar,Begusarai,"Lohiyanagar, Begusarai - BSPCB","29-03-2025 16:00:00",25.42742023,86.13886079,SO2,4,88,42
India,Bihar,Begusarai,"Lohiyanagar, Begusarai - BSPCB","29-03-2025 16:00:00",25.42742023,86.13886079,CO,47,74,63
India,Bihar,Bhagalpur,"Mayaganj, Bhagalpur - BSPCB","29-03-2025 16:00:00",25.265194,87.012947,NH3,8,8,8
India,Assam,Byrnihat,"Central Academy for SFS, Byrnihat - PCBA","29-03-2025 16:00:00",26.071318,91.87488,SO2,29,32,30
India,Assam,Byrnihat,"Central Academy for SFS, Byrnihat - PCBA","29-03-2025 16:00:00",26.071318,91.87488,OZONE,22,67,39
India,Assam,Guwahati,"IITG, Guwahati - PCBA","29-03-2025 16:00:00",26.2028636,91.70046436,SO2,19,23,21
India,Assam,Guwahati,"LGBI Airport, Guwahati - PCBA","29-03-2025 16:00:00",26.10887,91.589544,NO2,14,23,20
India,Assam,Guwahati,"LGBI Airport, Guwahati - PCBA","29-03-2025 16:00:00",26.10887,91.589544,SO2,8,15,11
India,Assam,Guwahati,"LGBI Airport, Guwahati - PCBA","29-03-2025 16:00:00",26.10887,91.589544,CO,16,53,44
India,Assam,Guwahati,"Pan Bazaar, Guwahati - PCBA","29-03-2025 16:00:00",26.187500,91.744194,PM10,56,112,85
India,Assam,Guwahati,"Railway Colony, Guwahati - PCBA","29-03-2025 16:00:00",26.181742,91.78063,SO2,18,19,19
India,Bihar,Arrah,"New DM Office, Arrah - BSPCB","29-03-2025 16:00:00",25.5626095,84.663264,OZONE,28,118,89
India,Bihar,Aurangabad,"Gurdeo Nagar, Aurangabad - BSPCB","29-03-2025 16:00:00",24.75746,84.366208,PM2.5,38,324,194
India,Bihar,Aurangabad,"Gurdeo Nagar, Aurangabad - BSPCB","29-03-2025 16:00:00",24.75746,84.366208,PM10,55,312,176
India,Andhra_Pradesh,Vijayawada,"Kanuru, Vijayawada - APPCB","29-03-2025 16:00:00",16.486692,80.699436,SO2,3,6,5
India,Bihar,Patna,"Rajbansi Nagar, Patna - BSPCB","29-03-2025 16:00:00",25.599486,85.113666,PM10,96,153,114
India,Bihar,Patna,"Rajbansi Nagar, Patna - BSPCB","29-03-2025 16:00:00",25.599486,85.113666,NH3,4,10,8
India,Bihar,Patna,"Rajbansi Nagar, Patna - BSPCB","29-03-2025 16:00:00",25.599486,85.113666,SO2,11,22,16
India,Bihar,Patna,"Rajbansi Nagar, Patna - BSPCB","29-03-2025 16:00:00",25.599486,85.113666,OZONE,3,109,85
India,Bihar,Patna,"Samanpura, Patna - BSPCB","29-03-2025 16:00:00",25.596727,85.085624,NO2,39,50,44
India,Bihar,Purnia,"Mariam Nagar, Purnia - BSPCB","29-03-2025 16:00:00",25.366336,87.117468,PM2.5,40,340,187
India,Bihar,Purnia,"Mariam Nagar, Purnia - BSPCB","29-03-2025 16:00:00",25.366336,87.117468,NO2,12,345,46
India,Bihar,Purnia,"Mariam Nagar, Purnia - BSPCB","29-03-2025 16:00:00",25.366336,87.117468,SO2,4,19,14
India,Bihar,Motihari,"Gandak Colony, Motihari - BSPCB","29-03-2025 16:00:00",26.63086,84.90051,NH3,3,3,3
India,Bihar,Motihari,"Gandak Colony, Motihari - BSPCB","29-03-2025 16:00:00",26.63086,84.90051,OZONE,11,15,14
India,Bihar,Munger,"Town Hall, Munger - BSPCB","29-03-2025 16:00:00",25.376776,86.471523,CO,15,34,16
India,Bihar,Muzaffarpur,"Buddha Colony, Muzaffarpur - BSPCB","29-03-2025 16:00:00",26.11442,85.39813,PM2.5,79,231,127
India,Bihar,Muzaffarpur,"Buddha Colony, Muzaffarpur - BSPCB","29-03-2025 16:00:00",26.11442,85.39813,SO2,4,12,8
India,Bihar,Muzaffarpur,"MIT-Daudpur Kothi, Muzaffarpur - BSPCB","29-03-2025 16:00:00",26.1403345,85.3650192,PM2.5,3,65,31
India,Bihar,Patna,"IGSC Planetarium Complex, Patna - BSPCB","29-03-2025 16:00:00",25.610369,85.132568,PM2.5,34,250,80
India,Bihar,Patna,"IGSC Planetarium Complex, Patna - BSPCB","29-03-2025 16:00:00",25.610369,85.132568,CO,28,37,32
India,Bihar,Patna,"IGSC Planetarium Complex, Patna - BSPCB","29-03-2025 16:00:00",25.610369,85.132568,OZONE,41,44,42
India,Bihar,Patna,"Muradpur, Patna - BSPCB","29-03-2025 16:00:00",25.619651,85.147382,PM2.5,61,129,84
India,Bihar,Patna,"Muradpur, Patna - BSPCB","29-03-2025 16:00:00",25.619651,85.147382,NO2,8,38,15
India,Bihar,Rajgir,"Dangi Tola, Rajgir - BSPCB","29-03-2025 16:00:00",25.03280,85.41948,NO2,8,10,9
India,Bihar,Rajgir,"Dangi Tola, Rajgir - BSPCB","29-03-2025 16:00:00",25.03280,85.41948,NH3,2,3,2
India,Bihar,Saharsa,"Police Line, Saharsa - BSPCB","29-03-2025 16:00:00",25.892357,86.590325,PM2.5,18,302,78
India,Bihar,Saharsa,"Police Line, Saharsa - BSPCB","29-03-2025 16:00:00",25.892357,86.590325,SO2,6,16,13
India,Bihar,"Bihar Sharif","D M Colony, Bihar Sharif - BSPCB","29-03-2025 16:00:00",25.204762,85.514960,CO,10,12,12
India,Bihar,"Bihar Sharif","D M Colony, Bihar Sharif - BSPCB","29-03-2025 16:00:00",25.204762,85.514960,OZONE,15,40,30
India,Bihar,Chhapra,"Darshan Nagar, Chhapra - BSPCB","29-03-2025 16:00:00",25.7808257,84.7446768,PM2.5,52,190,96
India,Bihar,Katihar,"Mirchaibari, Katihar - BSPCB","29-03-2025 16:00:00",25.560083,87.553265,NH3,1,1,1
India,Bihar,Katihar,"Mirchaibari, Katihar - BSPCB","29-03-2025 16:00:00",25.560083,87.553265,OZONE,18,58,43
India,Bihar,Manguraha,"Forest Rest House, Manguraha - BSPCB","29-03-2025 16:00:00",27.308328,84.531742,PM10,74,189,136
India,Bihar,Muzaffarpur,"MIT-Daudpur Kothi, Muzaffarpur - BSPCB","29-03-2025 16:00:00",26.1403345,85.3650192,PM10,NA,NA,NA
India,Bihar,Patna,"DRM Office Danapur, Patna - BSPCB","29-03-2025 16:00:00",25.586562,85.043586,CO,23,92,36
India,Bihar,Hajipur,"Industrial Area, Hajipur - BSPCB","29-03-2025 16:00:00",25.697189,85.245900,NH3,5,8,6
India,Bihar,Hajipur,"Industrial Area, Hajipur - BSPCB","29-03-2025 16:00:00",25.697189,85.245900,CO,22,35,30
India,Bihar,Chhapra,"Darshan Nagar, Chhapra - BSPCB","29-03-2025 16:00:00",25.7808257,84.7446768,NO2,4,35,16
India,Chhattisgarh,Bhilai,"Civic Center, Bhilai - Bhilai Steel Plant","29-03-2025 16:00:00",21.185571,81.343175,PM2.5,22,75,39
India,Chhattisgarh,Bhilai,"Civic Center, Bhilai - Bhilai Steel Plant","29-03-2025 16:00:00",21.185571,81.343175,CO,20,84,34
India,Chhattisgarh,Bhilai,"Hathkhoj, Bhilai - CECB","29-03-2025 16:00:00",21.224231,81.408350,PM2.5,42,176,81
India,Chhattisgarh,Bhilai,"Hathkhoj, Bhilai - CECB","29-03-2025 16:00:00",21.224231,81.408350,NO2,17,98,42
India,Chhattisgarh,Bhilai,"Hathkhoj, Bhilai - CECB","29-03-2025 16:00:00",21.224231,81.408350,SO2,17,77,42
India,Chhattisgarh,Bilaspur,"Mangala, Bilaspur - NTPC","29-03-2025 16:00:00",22.08815,82.13737,PM2.5,48,129,74
India,Chhattisgarh,Bilaspur,"Mangala, Bilaspur - NTPC","29-03-2025 16:00:00",22.08815,82.13737,SO2,16,30,20
India,Chhattisgarh,Korba,"Rampur, Korba - CECB","29-03-2025 16:00:00",22.368195,82.746431,PM2.5,NA,NA,NA
India,Chhattisgarh,Korba,"Rampur, Korba - CECB","29-03-2025 16:00:00",22.368195,82.746431,PM10,NA,NA,NA
India,Delhi,Delhi,"Anand Vihar, Delhi - DPCC","29-03-2025 16:00:00",28.647622,77.3158090,PM2.5,2,220,88
India,Delhi,Delhi,"Anand Vihar, Delhi - DPCC","29-03-2025 16:00:00",28.647622,77.3158090,PM10,48,340,185
India,Delhi,Delhi,"Anand Vihar, Delhi - DPCC","29-03-2025 16:00:00",28.647622,77.3158090,NH3,1,9,5
India,Delhi,Delhi,"Ashok Vihar, Delhi - DPCC","29-03-2025 16:00:00",28.695381,77.181665,CO,54,64,59
India,Delhi,Delhi,"Aya Nagar, Delhi - IMD","29-03-2025 16:00:00",28.4706914,77.1099364,CO,25,104,91
India,Delhi,Delhi,"Dr. Karni Singh Shooting Range, Delhi - DPCC","29-03-2025 16:00:00",28.498571,77.264840,PM2.5,30,197,63
India,Delhi,Delhi,"Dr. Karni Singh Shooting Range, Delhi - DPCC","29-03-2025 16:00:00",28.498571,77.264840,PM10,91,251,151
India,Delhi,Delhi,"Dr. Karni Singh Shooting Range, Delhi - DPCC","29-03-2025 16:00:00",28.498571,77.264840,CO,4,48,42
India,Delhi,Delhi,"Dwarka-Sector 8, Delhi - DPCC ","29-03-2025 16:00:00",28.5710274,77.0719006,PM2.5,37,303,90
India,Delhi,Delhi,"Dwarka-Sector 8, Delhi - DPCC ","29-03-2025 16:00:00",28.5710274,77.0719006,NH3,8,13,10
India,Chhattisgarh,Korba,"Rampur, Korba - CECB","29-03-2025 16:00:00",22.368195,82.746431,SO2,NA,NA,NA
India,Chhattisgarh,Kunjemura,"OP Jindal School, Kunjemura - CECB","29-03-2025 16:00:00",22.126650,83.483212,PM10,70,477,247
India,Chhattisgarh,Kunjemura,"OP Jindal School, Kunjemura - CECB","29-03-2025 16:00:00",22.126650,83.483212,CO,27,62,43
India,Chhattisgarh,Milupara,"Govt. Higher Secondary School, Milupara - CECB","29-03-2025 16:00:00",22.1910172,83.5197009,PM10,83,158,132
India,Chhattisgarh,Raipur,"AIIMS, Raipur - CECB","29-03-2025 16:00:00",21.258815,81.578979,PM10,58,184,109
India,Chhattisgarh,Raipur,"AIIMS, Raipur - CECB","29-03-2025 16:00:00",21.258815,81.578979,CO,22,60,40
India,Chhattisgarh,Raipur,"Krishak Nagar, Raipur - CECB","29-03-2025 16:00:00",21.237755,81.705301,PM10,59,134,93
India,Chhattisgarh,Raipur,"Krishak Nagar, Raipur - CECB","29-03-2025 16:00:00",21.237755,81.705301,NH3,7,7,7
India,Chhattisgarh,Raipur,"Siltara Phase-II, Raipur - CECB","29-03-2025 16:00:00",21.371751,81.664929,NH3,3,3,3
India,Delhi,Delhi,"ITO, Delhi - CPCB","29-03-2025 16:00:00",28.628624,77.241060,CO,11,26,21
India,Delhi,Delhi,"Jahangirpuri, Delhi - DPCC","29-03-2025 16:00:00",28.732820,77.170633,PM2.5,48,340,128
India,Delhi,Delhi,"Jahangirpuri, Delhi - DPCC","29-03-2025 16:00:00",28.732820,77.170633,NH3,9,11,10
India,Delhi,Delhi,"Jahangirpuri, Delhi - DPCC","29-03-2025 16:00:00",28.732820,77.170633,OZONE,42,133,93
India,Delhi,Delhi,"Lodhi Road, Delhi - IITM","29-03-2025 16:00:00",28.588333,77.221667,PM10,90,176,133
India,Bihar,Samastipur,"DM Office_Kasipur, Samastipur - BSPCB","29-03-2025 16:00:00",25.859655,85.77944,NH3,2,2,2
India,Bihar,Siwan,"Chitragupta Nagar, Siwan - BSPCB","29-03-2025 16:00:00",26.2271665,84.3570427,PM2.5,NA,NA,NA
India,Chandigarh,Chandigarh,"Sector 22, Chandigarh - CPCC","29-03-2025 16:00:00",30.735567,76.775714,CO,38,72,55
India,Delhi,Delhi,"IGI Airport (T3), Delhi - IMD","29-03-2025 16:00:00",28.5627763,77.1180053,PM10,100,181,129
India,Delhi,Delhi,"IHBAS, Dilshad Garden, Delhi - CPCB","29-03-2025 16:00:00",28.6811736,77.3025234,PM10,79,149,116
India,Delhi,Delhi,"IHBAS, Dilshad Garden, Delhi - CPCB","29-03-2025 16:00:00",28.6811736,77.3025234,SO2,3,5,4
India,Delhi,Delhi,"ITO, Delhi - CPCB","29-03-2025 16:00:00",28.628624,77.241060,PM10,77,152,108
India,Delhi,Delhi,"Chandni Chowk, Delhi - IITM","29-03-2025 16:00:00",28.656756,77.227234,CO,78,136,133
India,Delhi,Delhi,"Rohini, Delhi - DPCC","29-03-2025 16:00:00",28.732528,77.119920,SO2,5,30,15
India,Delhi,Delhi,"Shadipur, Delhi - CPCB","29-03-2025 16:00:00",28.6514781,77.1473105,PM2.5,42,225,108
India,Delhi,Delhi,"Shadipur, Delhi - CPCB","29-03-2025 16:00:00",28.6514781,77.1473105,PM10,73,178,116
India,Delhi,Delhi,"Shadipur, Delhi - CPCB","29-03-2025 16:00:00",28.6514781,77.1473105,SO2,3,34,22
India,Delhi,Delhi,"Shadipur, Delhi - CPCB","29-03-2025 16:00:00",28.6514781,77.1473105,OZONE,14,58,26
India,Delhi,Delhi,"Sirifort, Delhi - CPCB","29-03-2025 16:00:00",28.5504249,77.2159377,SO2,76,78,76
India,Delhi,Delhi,"North Campus, DU, Delhi - IMD","29-03-2025 16:00:00",28.6573814,77.1585447,OZONE,63,136,92
India,Delhi,Delhi,"Okhla Phase-2, Delhi - DPCC","29-03-2025 16:00:00",28.530785,77.271255,SO2,8,26,15
India,Delhi,Delhi,"Okhla Phase-2, Delhi - DPCC","29-03-2025 16:00:00",28.530785,77.271255,CO,46,74,67
India,Delhi,Delhi,"Punjabi Bagh, Delhi - DPCC","29-03-2025 16:00:00",28.674045,77.131023,NH3,5,6,5
India,Delhi,Delhi,"Pusa, Delhi - IMD","29-03-2025 16:00:00",28.636110,77.173332,PM10,67,150,111
India,Delhi,Delhi,"Pusa, Delhi - IMD","29-03-2025 16:00:00",28.636110,77.173332,CO,15,25,21
India,Delhi,Delhi,"R K Puram, Delhi - DPCC","29-03-2025 16:00:00",28.563262,77.186937,PM2.5,28,336,87
India,Delhi,Delhi,"R K Puram, Delhi - DPCC","29-03-2025 16:00:00",28.563262,77.186937,NO2,11,34,17
India,Delhi,Delhi,"R K Puram, Delhi - DPCC","29-03-2025 16:00:00",28.563262,77.186937,NH3,2,3,3
India,Delhi,Delhi,"Sri Aurobindo Marg, Delhi - DPCC","29-03-2025 16:00:00",28.531346,77.190156,CO,31,48,39
India,Delhi,Delhi,"Vivek Vihar, Delhi - DPCC","29-03-2025 16:00:00",28.672342,77.315260,PM10,89,246,156
India,Delhi,Delhi,"Vivek Vihar, Delhi - DPCC","29-03-2025 16:00:00",28.672342,77.315260,NO2,24,34,29
India,Delhi,Delhi,"Major Dhyan Chand National Stadium, Delhi - DPCC","29-03-2025 16:00:00",28.611281,77.237738,PM10,59,222,125
India,Delhi,Delhi,"Mandir Marg, Delhi - DPCC","29-03-2025 16:00:00",28.636429,77.201067,SO2,NA,NA,NA
India,Delhi,Delhi,"NSIT Dwarka, Delhi - CPCB","29-03-2025 16:00:00",28.60909,77.0325413,NH3,8,9,8
India,Delhi,Delhi,"NSIT Dwarka, Delhi - CPCB","29-03-2025 16:00:00",28.60909,77.0325413,OZONE,21,47,36
India,Delhi,Delhi,"Lodhi Road, Delhi - IMD","29-03-2025 16:00:00",28.5918245,77.2273074,PM2.5,14,71,41
India,Delhi,Delhi,"Lodhi Road, Delhi - IMD","29-03-2025 16:00:00",28.5918245,77.2273074,PM10,74,179,127
India,Delhi,Delhi,"North Campus, DU, Delhi - IMD","29-03-2025 16:00:00",28.6573814,77.1585447,NO2,17,39,25
India,Delhi,Delhi,"NSIT Dwarka, Delhi - CPCB","29-03-2025 16:00:00",28.60909,77.0325413,PM10,96,222,144
India,Gujarat,Gandhinagar,"IIPHG Lekawada, Gandhinagar - IITM","29-03-2025 16:00:00",23.243639,72.68994,SO2,4,8,6
India,Gujarat,Gandhinagar,"IIPHG Lekawada, Gandhinagar - IITM","29-03-2025 16:00:00",23.243639,72.68994,CO,2,20,11
India,Gujarat,Gandhinagar,"Sector-10, Gandhinagar - GPCB","29-03-2025 16:00:00",23.221714,72.654328,PM2.5,15,48,28
India,Gujarat,Gandhinagar,"Sector-10, Gandhinagar - GPCB","29-03-2025 16:00:00",23.221714,72.654328,CO,6,32,11
India,Gujarat,Vapi,"Phase-1 GIDC, Vapi - GPCB","29-03-2025 16:00:00",20.362421,72.918013,NO2,13,14,14
India,Gujarat,Vapi,"Phase-1 GIDC, Vapi - GPCB","29-03-2025 16:00:00",20.362421,72.918013,SO2,31,40,35
India,Gujarat,Vatva,"Phase-4 GIDC, Vatva - GPCB","29-03-2025 16:00:00",22.969611,72.643500,PM10,53,106,73
India,Gujarat,Vatva,"Phase-4 GIDC, Vatva - GPCB","29-03-2025 16:00:00",22.969611,72.643500,NH3,NA,NA,NA
India,Gujarat,Vatva,"Phase-4 GIDC, Vatva - GPCB","29-03-2025 16:00:00",22.969611,72.643500,OZONE,1,2,2
India,Haryana,Panchgaon,"Amity University, Panchgaon - IITM","29-03-2025 16:00:00",28.3153,76.9143,NO2,49,117,87
India,Haryana,Panchgaon,"Amity University, Panchgaon - IITM","29-03-2025 16:00:00",28.3153,76.9143,SO2,15,33,21
India,Haryana,Panchgaon,"Amity University, Panchgaon - IITM","29-03-2025 16:00:00",28.3153,76.9143,CO,2,54,45
India,Jammu_and_Kashmir,Srinagar,"Rajbagh, Srinagar - JKSPCB","29-03-2025 16:00:00",34.066206,74.819820,PM2.5,40,71,49
India,Jammu_and_Kashmir,Srinagar,"Rajbagh, Srinagar - JKSPCB","29-03-2025 16:00:00",34.066206,74.819820,NO2,21,21,21
India,Jammu_and_Kashmir,Srinagar,"Rajbagh, Srinagar - JKSPCB","29-03-2025 16:00:00",34.066206,74.819820,CO,12,19,15
India,Jharkhand,Dhanbad,"Sardar Patel Nagar, Dhanbad - JSPCB","29-03-2025 16:00:00",23.80569,86.44268,PM10,58,198,120
India,Delhi,Delhi,"Vivek Vihar, Delhi - DPCC","29-03-2025 16:00:00",28.672342,77.315260,SO2,16,27,20
India,Delhi,Delhi,"Vivek Vihar, Delhi - DPCC","29-03-2025 16:00:00",28.672342,77.315260,OZONE,53,127,92
India,Delhi,Delhi,"Wazirpur, Delhi - DPCC","29-03-2025 16:00:00",28.699793,77.165453,SO2,25,55,31
India,Delhi,Delhi,"Wazirpur, Delhi - DPCC","29-03-2025 16:00:00",28.699793,77.165453,OZONE,68,159,159
India,Gujarat,Ahmedabad,"Chandkheda, Ahmedabad - IITM","29-03-2025 16:00:00",23.107969,72.574648,OZONE,25,163,155
India,Gujarat,Ahmedabad,"Gyaspur, Ahmedabad - IITM","29-03-2025 16:00:00",22.977134,72.553024,PM2.5,58,327,134
India,Gujarat,Ahmedabad,"Gyaspur, Ahmedabad - IITM","29-03-2025 16:00:00",22.977134,72.553024,OZONE,4,141,86
India,Haryana,Faridabad,"Sector 11, Faridabad - HSPCB","29-03-2025 16:00:00",28.376058,77.315741,PM2.5,43,50,45
India,Haryana,Faridabad,"Sector 11, Faridabad - HSPCB","29-03-2025 16:00:00",28.376058,77.315741,NH3,6,6,6
India,Haryana,Gurugram,"Sector-51, Gurugram - HSPCB","29-03-2025 16:00:00",28.4227,77.0667,NO2,9,10,10
India,Haryana,Gurugram,"Sector-51, Gurugram - HSPCB","29-03-2025 16:00:00",28.4227,77.0667,NH3,92,94,93
India,Haryana,Gurugram,"Sector-51, Gurugram - HSPCB","29-03-2025 16:00:00",28.4227,77.0667,SO2,5,17,10
India,Haryana,Gurugram,"Teri Gram, Gurugram - HSPCB","29-03-2025 16:00:00",28.4275,77.1465,PM10,88,137,115
India,Karnataka,Bagalkot,"Vidayagiri, Bagalkot - KSPCB","29-03-2025 16:00:00",16.172806,75.659694,NH3,1,2,1
India,Karnataka,Bagalkot,"Vidayagiri, Bagalkot - KSPCB","29-03-2025 16:00:00",16.172806,75.659694,CO,2,40,23
India,Karnataka,Bengaluru,"City Railway Station, Bengaluru - KSPCB","29-03-2025 16:00:00",12.9756843,77.5660749,CO,48,105,61
India,Karnataka,Bengaluru,"Hombegowda Nagar, Bengaluru - KSPCB","29-03-2025 16:00:00",12.938539,77.590100,NH3,2,3,2
India,Gujarat,Ahmedabad,"Raikhad, Ahmedabad - IITM","29-03-2025 16:00:00",23.020509,72.579261,PM10,40,90,57
India,Gujarat,Ahmedabad,"Raikhad, Ahmedabad - IITM","29-03-2025 16:00:00",23.020509,72.579261,SO2,6,54,14
India,Gujarat,Ahmedabad,"Rakhial, Ahmedabad - IITM","29-03-2025 16:00:00",23.016834,72.625775,PM10,NA,NA,NA
India,Gujarat,Ahmedabad,"Rakhial, Ahmedabad - IITM","29-03-2025 16:00:00",23.016834,72.625775,NO2,5,36,10
India,Gujarat,Ahmedabad,"Rakhial, Ahmedabad - IITM","29-03-2025 16:00:00",23.016834,72.625775,NH3,6,11,7
India,Gujarat,Ahmedabad,"Sardar Vallabhbhai Patel Stadium, Ahmedabad - IITM","29-03-2025 16:00:00",23.043070,72.562968,PM2.5,54,122,73
India,Gujarat,Ahmedabad,"Sardar Vallabhbhai Patel Stadium, Ahmedabad - IITM","29-03-2025 16:00:00",23.043070,72.562968,NH3,2,8,4
India,Gujarat,Ankleshwar,"GIDC, Ankleshwar - GPCB","29-03-2025 16:00:00",21.613267,73.010555,CO,6,86,6
India,Karnataka,Bengaluru,"Jayanagar 5th Block, Bengaluru - KSPCB","29-03-2025 16:00:00",12.920984,77.584908,PM10,76,129,102
India,Karnataka,Bengaluru,"Jayanagar 5th Block, Bengaluru - KSPCB","29-03-2025 16:00:00",12.920984,77.584908,SO2,9,17,12
India,Karnataka,Bengaluru,"Jayanagar 5th Block, Bengaluru - KSPCB","29-03-2025 16:00:00",12.920984,77.584908,OZONE,11,18,17
India,Karnataka,Bengaluru,"Jayanagar 5th Block, Bengaluru - KSPCB","29-03-2025 16:00:00",12.920984,77.584908,PM2.5,50,205,85
India,Karnataka,Chikkaballapur,"Chikkaballapur Rural, Chikkaballapur - KSPCB","29-03-2025 16:00:00",13.428828,77.731418,PM2.5,67,140,90
India,Karnataka,Chikkaballapur,"Chikkaballapur Rural, Chikkaballapur - KSPCB","29-03-2025 16:00:00",13.428828,77.731418,SO2,18,27,22
India,Karnataka,Chikkamagaluru,"Kalyana Nagara, Chikkamagaluru - KSPCB","29-03-2025 16:00:00",13.328028,75.797056,PM2.5,27,72,44
India,Karnataka,Chikkamagaluru,"Kalyana Nagara, Chikkamagaluru - KSPCB","29-03-2025 16:00:00",13.328028,75.797056,NO2,20,27,25
India,Karnataka,Chikkamagaluru,"Kalyana Nagara, Chikkamagaluru - KSPCB","29-03-2025 16:00:00",13.328028,75.797056,CO,11,63,12
India,Karnataka,Davanagere,"Devaraj Urs Badavane, Davanagere - KSPCB","29-03-2025 16:00:00",14.475800,75.905200,NO2,11,14,12
India,Karnataka,Davanagere,"Devaraj Urs Badavane, Davanagere - KSPCB","29-03-2025 16:00:00",14.475800,75.905200,NH3,2,2,2
India,Karnataka,Davanagere,"Devaraj Urs Badavane, Davanagere - KSPCB","29-03-2025 16:00:00",14.475800,75.905200,SO2,6,8,7
India,Karnataka,Davanagere,"Devaraj Urs Badavane, Davanagere - KSPCB","29-03-2025 16:00:00",14.475800,75.905200,CO,28,34,28
India,Karnataka,Hubballi,"Lingaraj Nagar, Hubballi - KSPCB","29-03-2025 16:00:00",15.3714823,75.1160168,OZONE,13,28,21
India,Karnataka,Kalaburagi,"Lal Bahadur Shastri Nagar, Kalaburagi - KSPCB","29-03-2025 16:00:00",17.321993,76.822628,PM10,50,187,113
India,Karnataka,Kalaburagi,"Lal Bahadur Shastri Nagar, Kalaburagi - KSPCB","29-03-2025 16:00:00",17.321993,76.822628,NO2,12,12,12
India,Karnataka,Kalaburagi,"Mahatma Basaveswar Colony, Kalaburgi - KSPCB","29-03-2025 16:00:00",17.336318,76.847397,SO2,2,5,4
India,Karnataka,Koppal,"Diwator Nagar, Koppal - KSPCB","29-03-2025 16:00:00",15.347630,76.181767,CO,44,63,52
India,Karnataka,Tumakuru,"Thimmalapura, Tumakuru - KSPCB","29-03-2025 16:00:00",13.377516,77.099072,OZONE,5,7,6
India,Karnataka,Yadgir,"Collector Office, Yadgir - KSPCB","29-03-2025 16:00:00",16.7602,77.1428,PM10,93,162,109
India,Karnataka,Yadgir,"Collector Office, Yadgir - KSPCB","29-03-2025 16:00:00",16.7602,77.1428,NH3,2,3,2
India,Karnataka,Yadgir,"Collector Office, Yadgir - KSPCB","29-03-2025 16:00:00",16.7602,77.1428,SO2,8,27,15
India,Karnataka,Madikeri,"Stuart Hill, Madikeri - KSPCB","29-03-2025 16:00:00",12.415911,75.735050,NH3,1,2,1
India,Karnataka,Madikeri,"Stuart Hill, Madikeri - KSPCB","29-03-2025 16:00:00",12.415911,75.735050,CO,12,18,15
India,Karnataka,Mysuru,"Hebbal 1st Stage, Mysuru - KSPCB","29-03-2025 16:00:00",12.21041,76.37376,NO2,9,29,20
India,Karnataka,Mysuru,"Hebbal 1st Stage, Mysuru - KSPCB","29-03-2025 16:00:00",12.21041,76.37376,CO,6,59,18
India,Karnataka,Bengaluru,"Silk Board, Bengaluru - KSPCB","29-03-2025 16:00:00",12.917348,77.622813,PM10,NA,NA,NA
India,Karnataka,Bengaluru,"Silk Board, Bengaluru - KSPCB","29-03-2025 16:00:00",12.917348,77.622813,NH3,NA,NA,NA
India,Karnataka,Bidar,"Naubad, Bidar - KSPCB","29-03-2025 16:00:00",17.930306,77.482194,CO,NA,NA,NA
India,Karnataka,Chamarajanagar,"Urban, Chamarajanagar - KSPCB","29-03-2025 16:00:00",11.55358,76.55521,PM2.5,26,48,34
India,Karnataka,Haveri,"Ashwini Nagar, Haveri - KSPCB","29-03-2025 16:00:00",14.791800,75.389600,PM2.5,NA,NA,NA
India,Karnataka,Haveri,"Ashwini Nagar, Haveri - KSPCB","29-03-2025 16:00:00",14.791800,75.389600,NH3,NA,NA,NA
India,Karnataka,Hubballi,"Lingaraj Nagar, Hubballi - KSPCB","29-03-2025 16:00:00",15.3714823,75.1160168,PM10,46,50,47
India,Karnataka,Hubballi,"Lingaraj Nagar, Hubballi - KSPCB","29-03-2025 16:00:00",15.3714823,75.1160168,NH3,1,3,1
India,Karnataka,Ramanagara,"Vijay Nagar, Ramanagara - KSPCB","29-03-2025 16:00:00",12.733409,77.298051,CO,2,86,26
India,Karnataka,Shivamogga,"Vinoba Nagara, Shivamogga - KSPCB","29-03-2025 16:00:00",13.940000,75.555917,PM10,47,60,52
India,Karnataka,Gadag,"Panchal Nagar, Gadag - KSPCB","29-03-2025 16:00:00",15.411456,75.638133,PM2.5,7,18,14
India,Karnataka,Gadag,"Panchal Nagar, Gadag - KSPCB","29-03-2025 16:00:00",15.411456,75.638133,SO2,10,32,18
India,Karnataka,Chamarajanagar,"Urban, Chamarajanagar - KSPCB","29-03-2025 16:00:00",11.55358,76.55521,NO2,23,35,30
India,"Madhya Pradesh",Jabalpur,"Marhatal, Jabalpur - MPPCB","29-03-2025 16:00:00",23.168606,79.932247,OZONE,21,82,70
India,"Madhya Pradesh",Jabalpur,"Suhagi, Jabalpur - JMC","29-03-2025 16:00:00",23.218135,79.957770,SO2,6,28,19
India,"Madhya Pradesh",Katni,"Gole Bazar, Katni - MPPCB","29-03-2025 16:00:00",23.50016,80.23284,PM2.5,15,31,23
India,"Madhya Pradesh",Katni,"Gole Bazar, Katni - MPPCB","29-03-2025 16:00:00",23.50016,80.23284,PM10,83,125,106
India,"Madhya Pradesh",Katni,"Gole Bazar, Katni - MPPCB","29-03-2025 16:00:00",23.50016,80.23284,NO2,15,74,35
India,"Madhya Pradesh",Katni,"Gole Bazar, Katni - MPPCB","29-03-2025 16:00:00",23.50016,80.23284,CO,19,56,23
India,"Madhya Pradesh",Katni,"Gole Bazar, Katni - MPPCB","29-03-2025 16:00:00",23.50016,80.23284,OZONE,26,104,85
India,"Madhya Pradesh",Maihar,"Sahilara, Maihar - KJS Cements","29-03-2025 16:00:00",24.2613009,80.7231783,PM10,9,136,49
India,Kerala,Thrissur,"Corporation Ground, Thrissur - Kerala PCB","29-03-2025 16:00:00",10.532400,76.215900,CO,16,28,19
India,Kerala,Thrissur,"Corporation Ground, Thrissur - Kerala PCB","29-03-2025 16:00:00",10.532400,76.215900,OZONE,27,31,29
India,"Madhya Pradesh",Bhopal,"Idgah Hills, Bhopal - MPPCB","29-03-2025 16:00:00",23.264759,77.381568,SO2,5,125,38
India,"Madhya Pradesh",Bhopal,"Idgah Hills, Bhopal - MPPCB","29-03-2025 16:00:00",23.264759,77.381568,OZONE,78,101,92
India,"Madhya Pradesh",Bhopal,"Paryavaran Parisar, Bhopal - MPPCB","29-03-2025 16:00:00",23.210494,77.425409,PM10,58,146,107
India,"Madhya Pradesh",Bhopal,"T T Nagar, Bhopal - MPPCB","29-03-2025 16:00:00",23.233584,77.400574,NO2,24,57,33
India,"Madhya Pradesh",Bhopal,"T T Nagar, Bhopal - MPPCB","29-03-2025 16:00:00",23.233584,77.400574,NH3,15,25,19
India,"Madhya Pradesh",Sagar,"Civil Lines, Sagar - MPPCB","29-03-2025 16:00:00",23.838586,78.759431,NO2,10,46,20
India,"Madhya Pradesh",Satna,"Bandhavgar Colony, Satna - Birla Cement","29-03-2025 16:00:00",24.58434363,80.8549414,PM10,54,56,55
India,"Madhya Pradesh",Satna,"Bandhavgar Colony, Satna - Birla Cement","29-03-2025 16:00:00",24.58434363,80.8549414,CO,10,31,17
India,"Madhya Pradesh",Singrauli,"Suryakiran Bhawan NCL, Singrauli - MPPCB","29-03-2025 16:00:00",24.108970,82.645580,SO2,30,103,51
India,Kerala,Eloor,"Udyogamandal, Eloor - Kerala PCB","29-03-2025 16:00:00",10.073232,76.302765,NH3,1,1,1
India,Kerala,Kannur,"Thavakkara, Kannur - Kerala PCB","29-03-2025 16:00:00",11.875000,75.373200,NH3,1,3,2
India,Kerala,Kannur,"Thavakkara, Kannur - Kerala PCB","29-03-2025 16:00:00",11.875000,75.373200,OZONE,26,31,29
India,Kerala,Thiruvananthapuram,"Kariavattom, Thiruvananthapuram - Kerala PCB","29-03-2025 16:00:00",8.563700,76.886500,NO2,6,7,6
India,"Madhya Pradesh",Gwalior,"Deen Dayal Nagar, Gwalior - MPPCB","29-03-2025 16:00:00",26.259242,78.216432,SO2,15,19,17
India,"Madhya Pradesh",Gwalior,"Maharaj Bada, Gwalior - MPPCB","29-03-2025 16:00:00",26.200388,78.147714,PM2.5,43,99,65
India,"Madhya Pradesh",Gwalior,"Maharaj Bada, Gwalior - MPPCB","29-03-2025 16:00:00",26.200388,78.147714,PM10,88,166,118
India,"Madhya Pradesh",Gwalior,"Maharaj Bada, Gwalior - MPPCB","29-03-2025 16:00:00",26.200388,78.147714,SO2,5,17,11
India,"Madhya Pradesh",Gwalior,"Maharaj Bada, Gwalior - MPPCB","29-03-2025 16:00:00",26.200388,78.147714,CO,13,82,45
India,"Madhya Pradesh",Indore,"Airport Area, Indore - IMC","29-03-2025 16:00:00",22.7289,75.8076,OZONE,6,45,22
India,"Madhya Pradesh",Indore,"Chhoti Gwaltoli, Indore - MPPCB","29-03-2025 16:00:00",22.4310,75.5213,OZONE,21,100,79
India,"Madhya Pradesh",Jabalpur,"Govindh Bhavan Colony, Jabalpur - JMC","29-03-2025 16:00:00",23.163174,79.973061,NH3,1,2,1
India,"Madhya Pradesh",Jabalpur,"Gupteshwar, Jabalpur - JMC","29-03-2025 16:00:00",23.142888,79.916147,PM2.5,32,120,71
India,"Madhya Pradesh",Jabalpur,"Gupteshwar, Jabalpur - JMC","29-03-2025 16:00:00",23.142888,79.916147,NH3,3,4,3
India,"Madhya Pradesh",Jabalpur,"Marhatal, Jabalpur - MPPCB","29-03-2025 16:00:00",23.168606,79.932247,PM2.5,20,113,56
India,"Madhya Pradesh",Mandideep,"Sector-D Industrial Area, Mandideep - MPPCB","29-03-2025 16:00:00",23.108440,77.511428,NH3,4,8,5
India,"Madhya Pradesh",Pithampur,"Sector-2 Industrial Area, Pithampur - MPPCB","29-03-2025 16:00:00",22.624758,75.675238,CO,28,62,33
India,"Madhya Pradesh",Damoh,"Shrivastav Colony, Damoh - MPPCB","29-03-2025 16:00:00",23.81748678,79.446246,SO2,22,35,24
India,"Madhya Pradesh",Dewas,"Bhopal Chauraha, Dewas - MPPCB","29-03-2025 16:00:00",22.9682591,76.064118,PM10,46,186,102
India,Maharashtra,Amravati,"Shri Shivaji Science College, Amaravati - MPCB","29-03-2025 16:00:00",20.939198,77.765701,SO2,15,32,20
India,Maharashtra,Aurangabad,"MIDC Chilkalthana, Aurangabad - MPCB","29-03-2025 16:00:00",19.875620,75.387310,PM10,71,108,92
India,Maharashtra,Aurangabad,"MIDC Chilkalthana, Aurangabad - MPCB","29-03-2025 16:00:00",19.875620,75.387310,SO2,6,21,11
India,Maharashtra,Aurangabad,"MIDC Chilkalthana, Aurangabad - MPCB","29-03-2025 16:00:00",19.875620,75.387310,OZONE,7,74,56
India,Maharashtra,Aurangabad,"More Chowk Waluj, Aurangabad - MPCB","29-03-2025 16:00:00",19.8389439,75.244448,CO,30,46,43
India,Maharashtra,Aurangabad,"More Chowk Waluj, Aurangabad - MPCB","29-03-2025 16:00:00",19.8389439,75.244448,OZONE,30,170,159
India,Maharashtra,Aurangabad,"Rachnakar Colony, Aurangabad - MPCB","29-03-2025 16:00:00",19.863756,75.321188,PM10,77,331,108
India,Maharashtra,Aurangabad,"Rachnakar Colony, Aurangabad - MPCB","29-03-2025 16:00:00",19.863756,75.321188,CO,6,18,9
India,Maharashtra,Malegaon,"Mahesh Nagar, Malegaon - MPCB","29-03-2025 16:00:00",20.555712,74.529236,NO2,42,47,44
India,Maharashtra,Malegaon,"Mahesh Nagar, Malegaon - MPCB","29-03-2025 16:00:00",20.555712,74.529236,OZONE,14,112,63
India,Maharashtra,Mumbai,"Bandra Kurla Complex, Mumbai - MPCB","29-03-2025 16:00:00",19.065931,72.862131,PM2.5,69,345,223
India,Maharashtra,Mumbai,"Bandra Kurla Complex, Mumbai - MPCB","29-03-2025 16:00:00",19.065931,72.862131,NO2,27,138,87
India,Maharashtra,Mumbai,"Borivali East, Mumbai - IITM","29-03-2025 16:00:00",19.23241,72.86895,NO2,43,149,83
India,Maharashtra,Mumbai,"Borivali East, Mumbai - MPCB","29-03-2025 16:00:00",19.2243333,72.8658113,NO2,NA,NA,NA
India,Maharashtra,Kalyan,"Pimpleshwar Mandir, Kalyan - MPCB","29-03-2025 16:00:00",19.192056,72.9585188,CO,12,36,24
India,Maharashtra,Kolhapur,"Shivaji University, Kolhapur - MPCB","29-03-2025 16:00:00",16.6870449,74.2505872,NO2,7,13,10
India,Maharashtra,Kolhapur,"Shivaji University, Kolhapur - MPCB","29-03-2025 16:00:00",16.6870449,74.2505872,NH3,2,9,5
India,Maharashtra,Kolhapur,"Shivaji University, Kolhapur - MPCB","29-03-2025 16:00:00",16.6870449,74.2505872,OZONE,9,85,47
India,Maharashtra,Kolhapur,"Sinchan Bhavan, Kolhapur - MPCB","29-03-2025 16:00:00",16.7143745,74.2426398,PM2.5,53,77,64
India,Maharashtra,Kolhapur,"Sinchan Bhavan, Kolhapur - MPCB","29-03-2025 16:00:00",16.7143745,74.2426398,PM10,53,73,62
India,"Madhya Pradesh",Ujjain,"Mahakaleshwar Temple, Ujjain - MPPCB","29-03-2025 16:00:00","23.182719 ","75.768218 ",PM10,24,68,47
India,"Madhya Pradesh",Ujjain,"Mahakaleshwar Temple, Ujjain - MPPCB","29-03-2025 16:00:00","23.182719 ","75.768218 ",NO2,15,33,24
India,"Madhya Pradesh",Ujjain,"Mahakaleshwar Temple, Ujjain - MPPCB","29-03-2025 16:00:00","23.182719 ","75.768218 ",NH3,1,2,2
India,"Madhya Pradesh",Ujjain,"Mahakaleshwar Temple, Ujjain - MPPCB","29-03-2025 16:00:00","23.182719 ","75.768218 ",CO,20,64,27
India,Maharashtra,Akola,"Ramdaspeth, Akola - MPCB","29-03-2025 16:00:00",20.719516,77.000253,PM10,65,124,91
India,Maharashtra,Akola,"Ramdaspeth, Akola - MPCB","29-03-2025 16:00:00",20.719516,77.000253,SO2,5,12,9
India,Maharashtra,Chandrapur,"Chauhan Colony, Chandrapur - MPCB","29-03-2025 16:00:00",19.962900,79.298714,PM10,152,336,223
India,Maharashtra,Chandrapur,"Chauhan Colony, Chandrapur - MPCB","29-03-2025 16:00:00",19.962900,79.298714,CO,10,17,11
India,Maharashtra,Chandrapur,"MIDC Khutala, Chandrapur - MPCB","29-03-2025 16:00:00",19.9775302,79.2337086,NH3,1,1,1
India,Maharashtra,Chandrapur,"MIDC Khutala, Chandrapur - MPCB","29-03-2025 16:00:00",19.9775302,79.2337086,SO2,NA,NA,NA
India,Maharashtra,Jalgaon,"Prabhat Colony, Jalgaon - MPCB","29-03-2025 16:00:00",21.001264,75.565602,SO2,10,50,19
India,Maharashtra,Kolhapur,"Sinchan Bhavan, Kolhapur - MPCB","29-03-2025 16:00:00",16.7143745,74.2426398,CO,11,30,23
India,Maharashtra,Latur,"Sawe Wadi, Latur - MPCB","29-03-2025 16:00:00",18.39963,76.57452,SO2,6,23,14
India,Maharashtra,Latur,"Sawe Wadi, Latur - MPCB","29-03-2025 16:00:00",18.39963,76.57452,OZONE,19,99,60
India,Maharashtra,Belapur,"CBD Belapur, Belapur - MPCB","29-03-2025 16:00:00",19.0243902,73.0406721,SO2,12,53,25
India,Maharashtra,Bhiwandi,"Gokul Nagar, Bhiwandi - MPCB","29-03-2025 16:00:00",19.309073,73.057223,PM2.5,64,156,86
India,Maharashtra,Bhiwandi,"Gokul Nagar, Bhiwandi - MPCB","29-03-2025 16:00:00",19.309073,73.057223,OZONE,17,159,159
India,Maharashtra,Boisar,"Khaira, Boisar - MPCB","29-03-2025 16:00:00",19.786089,72.757971,SO2,1,73,26
India,Maharashtra,Jalna,"Old MIDC, Jalna - MPCB","29-03-2025 16:00:00",19.854616,75.905894,NH3,3,5,4
India,Maharashtra,Kalyan,"Khadakpada, Kalyan - MPCB","29-03-2025 16:00:00",19.25292,73.142019,NH3,1,1,1
India,Maharashtra,Mumbai,"Colaba, Mumbai - MPCB","29-03-2025 16:00:00",18.910000,72.820000,PM10,53,100,76
India,Maharashtra,Mumbai,"Ghatkopar, Mumbai - BMC","29-03-2025 16:00:00",19.083694,72.920967,SO2,7,31,13
India,Maharashtra,Mumbai,"Ghatkopar, Mumbai - BMC","29-03-2025 16:00:00",19.083694,72.920967,CO,12,73,29
India,Maharashtra,Mumbai,"Ghatkopar, Mumbai - BMC","29-03-2025 16:00:00",19.083694,72.920967,OZONE,4,107,45
India,Maharashtra,Mumbai,"Kandivali East, Mumbai - MPCB","29-03-2025 16:00:00",19.205800,72.868200,PM10,NA,NA,NA
India,Maharashtra,Mumbai,"Kandivali East, Mumbai - MPCB","29-03-2025 16:00:00",19.205800,72.868200,NH3,3,11,6
India,Maharashtra,Mumbai,"Kandivali West, Mumbai - BMC","29-03-2025 16:00:00",19.215859,72.831718,PM2.5,45,75,61
India,Maharashtra,Mumbai,"Kandivali West, Mumbai - BMC","29-03-2025 16:00:00",19.215859,72.831718,PM10,69,107,94
India,Maharashtra,Mumbai,"Kandivali West, Mumbai - BMC","29-03-2025 16:00:00",19.215859,72.831718,CO,11,30,26
India,Maharashtra,Mumbai,"Chembur, Mumbai - MPCB","29-03-2025 16:00:00",19.0364585,72.8954371,PM10,117,164,135
India,Maharashtra,Mumbai,"Chembur, Mumbai - MPCB","29-03-2025 16:00:00",19.0364585,72.8954371,CO,19,57,38
India,Maharashtra,Mumbai,"Chhatrapati Shivaji Intl. Airport (T2), Mumbai - MPCB","29-03-2025 16:00:00",19.10078,72.87462,PM10,89,102,96
India,Maharashtra,Mumbai,"Chhatrapati Shivaji Intl. Airport (T2), Mumbai - MPCB","29-03-2025 16:00:00",19.10078,72.87462,NH3,1,2,1
India,Maharashtra,Mumbai,"Colaba, Mumbai - MPCB","29-03-2025 16:00:00",18.910000,72.820000,PM2.5,16,28,21
India,Maharashtra,Mumbai,"Vasai West, Mumbai - MPCB","29-03-2025 16:00:00",19.383200,72.820400,NO2,49,73,56
India,Maharashtra,Mumbai,"Vasai West, Mumbai - MPCB","29-03-2025 16:00:00",19.383200,72.820400,NH3,6,9,7
India,Maharashtra,Mumbai,"Vasai West, Mumbai - MPCB","29-03-2025 16:00:00",19.383200,72.820400,SO2,28,29,29
India,Maharashtra,Mumbai,"Vile Parle West, Mumbai - MPCB","29-03-2025 16:00:00",19.10861,72.83622,SO2,35,38,36
India,Maharashtra,Nagpur,"Ambazari, Nagpur - MPCB","29-03-2025 16:00:00",21.121801,79.04952,PM10,87,141,111
India,Maharashtra,Mumbai,"Khindipada-Bhandup West, Mumbai - IITM","29-03-2025 16:00:00",19.1653323,72.922099,OZONE,37,124,66
India,Maharashtra,Mumbai,"Kurla, Mumbai - MPCB","29-03-2025 16:00:00",19.0863,72.8888,PM10,108,182,134
India,Maharashtra,Mumbai,"Kurla, Mumbai - MPCB","29-03-2025 16:00:00",19.0863,72.8888,OZONE,28,29,28
India,Maharashtra,Mumbai,"Malad West, Mumbai - IITM","29-03-2025 16:00:00",19.19709,72.82204,OZONE,15,96,47
India,Maharashtra,Mumbai,"Siddharth Nagar-Worli, Mumbai - IITM","29-03-2025 16:00:00",19.000083,72.813993,PM2.5,NA,NA,NA
India,Maharashtra,Mumbai,"Siddharth Nagar-Worli, Mumbai - IITM","29-03-2025 16:00:00",19.000083,72.813993,NO2,NA,NA,NA
India,Maharashtra,Mumbai,"Siddharth Nagar-Worli, Mumbai - IITM","29-03-2025 16:00:00",19.000083,72.813993,NH3,NA,NA,NA
India,Maharashtra,Mumbai,"Sion, Mumbai - MPCB","29-03-2025 16:00:00",19.047000,72.874600,PM2.5,82,106,92
India,Maharashtra,Mumbai,"Sion, Mumbai - MPCB","29-03-2025 16:00:00",19.047000,72.874600,SO2,6,6,6
India,Maharashtra,Mumbai,"Sewri, Mumbai - BMC","29-03-2025 16:00:00",19.000084,72.856730,SO2,1,19,9
India,Maharashtra,Mumbai,"Shivaji Nagar, Mumbai - BMC","29-03-2025 16:00:00",19.060498,72.923356,PM2.5,43,165,71
India,Maharashtra,Mumbai,"Shivaji Nagar, Mumbai - BMC","29-03-2025 16:00:00",19.060498,72.923356,SO2,2,11,5
India,Maharashtra,Mumbai,"Mindspace-Malad West, Mumbai - MPCB","29-03-2025 16:00:00",19.1878657,72.8304069,NO2,16,95,43
India,Maharashtra,Mumbai,"Powai, Mumbai - MPCB","29-03-2025 16:00:00",19.137500,72.915056,PM10,81,124,98
India,Maharashtra,Mumbai,"Khindipada-Bhandup West, Mumbai - IITM","29-03-2025 16:00:00",19.1653323,72.922099,PM2.5,65,110,70
India,Maharashtra,Mumbai,"Khindipada-Bhandup West, Mumbai - IITM","29-03-2025 16:00:00",19.1653323,72.922099,SO2,NA,NA,NA
India,Maharashtra,Mumbai,"Byculla, Mumbai - BMC","29-03-2025 16:00:00",18.9767,72.8380,NH3,5,21,11
India,Maharashtra,Mumbai,"Byculla, Mumbai - BMC","29-03-2025 16:00:00",18.9767,72.8380,SO2,11,47,17
India,Maharashtra,Nagpur,"Opp GPO Civil Lines, Nagpur - MPCB","29-03-2025 16:00:00",21.152875,79.0517531,SO2,10,121,28
India,Maharashtra,Nagpur,"Ram Nagar, Nagpur - MPCB","29-03-2025 16:00:00",21.143383,79.048912,PM2.5,82,175,118
India,Maharashtra,Nagpur,"Ram Nagar, Nagpur - MPCB","29-03-2025 16:00:00",21.143383,79.048912,NO2,9,60,20
India,Maharashtra,Nagpur,"Ram Nagar, Nagpur - MPCB","29-03-2025 16:00:00",21.143383,79.048912,SO2,13,112,30
India,Maharashtra,Nagpur,"Ram Nagar, Nagpur - MPCB","29-03-2025 16:00:00",21.143383,79.048912,OZONE,18,93,41
India,Maharashtra,Nashik,"Gangapur Road, Nashik - MPCB","29-03-2025 16:00:00",20.0073285,73.7762427,PM10,58,164,102
India,Maharashtra,Nashik,"Gangapur Road, Nashik - MPCB","29-03-2025 16:00:00",20.0073285,73.7762427,SO2,3,85,16
India,Maharashtra,Nashik,"Hirawadi, Nashik - MPCB","29-03-2025 16:00:00",20.021503,73.813844,PM2.5,48,145,85
India,Maharashtra,Nashik,"Hirawadi, Nashik - MPCB","29-03-2025 16:00:00",20.021503,73.813844,NO2,4,25,14
India,Maharashtra,Nashik,"MIDC Ambad, Nashik - MPCB","29-03-2025 16:00:00",19.950220,73.731480,PM10,94,432,145
India,Maharashtra,Nashik,"MIDC Ambad, Nashik - MPCB","29-03-2025 16:00:00",19.950220,73.731480,NH3,3,6,5
India,Maharashtra,"Navi Mumbai","Kopripada-Vashi, Navi Mumbai - MPCB","29-03-2025 16:00:00",19.090337,73.014232,PM2.5,39,83,60
India,Maharashtra,"Navi Mumbai","Kopripada-Vashi, Navi Mumbai - MPCB","29-03-2025 16:00:00",19.090337,73.014232,NO2,53,194,124
India,Maharashtra,"Navi Mumbai","Kopripada-Vashi, Navi Mumbai - MPCB","29-03-2025 16:00:00",19.090337,73.014232,SO2,6,25,14
India,Maharashtra,"Navi Mumbai","Sanpada, Navi Mumbai - MPCB","29-03-2025 16:00:00",19.0575752,73.0151367,PM10,118,199,158
India,Maharashtra,"Navi Mumbai","Sanpada, Navi Mumbai - MPCB","29-03-2025 16:00:00",19.0575752,73.0151367,NO2,40,99,67
India,Maharashtra,"Navi Mumbai","Sector-2E Kalamboli, Navi Mumbai - MPCB","29-03-2025 16:00:00",19.02579,73.10297,OZONE,8,214,214
India,Maharashtra,"Navi Mumbai","Tondare-Taloja, Navi Mumbai - MPCB","29-03-2025 16:00:00",19.0630,73.1209,SO2,1,2,1
India,Maharashtra,Pimpri-Chinchwad,"Gavalinagar, Pimpri Chinchwad - MPCB","29-03-2025 16:00:00",18.63673,73.82487,PM2.5,57,137,88
India,Maharashtra,Thane,"Kasarvadavali, Thane - MPCB","29-03-2025 16:00:00",19.26777,72.97182,NO2,24,106,58
India,Maharashtra,Thane,"Kasarvadavali, Thane - MPCB","29-03-2025 16:00:00",19.26777,72.97182,SO2,6,43,16
India,Maharashtra,Thane,"Upvan Fort, Thane - MPCB","29-03-2025 16:00:00",19.222279,72.957979,CO,4,41,24
India,Maharashtra,Ulhasnagar,"Sidhi Vinayak Nagar, Ulhasnagar - MPCB","29-03-2025 16:00:00",19.235581,73.159121,NH3,2,6,4
India,Maharashtra,Ulhasnagar,"Sidhi Vinayak Nagar, Ulhasnagar - MPCB","29-03-2025 16:00:00",19.235581,73.159121,CO,14,45,22
India,Maharashtra,Pimpri-Chinchwad,"Park Street Wakad, Pimpri Chinchwad - MPCB","29-03-2025 16:00:00",18.59051,73.77946,PM10,45,79,65
India,Maharashtra,Pimpri-Chinchwad,"Park Street Wakad, Pimpri Chinchwad - MPCB","29-03-2025 16:00:00",18.59051,73.77946,NO2,48,149,98
India,Maharashtra,Pimpri-Chinchwad,"Thergaon, Pimpri Chinchwad - MPCB","29-03-2025 16:00:00",18.616318,73.765797,PM10,89,134,117
India,Maharashtra,Pimpri-Chinchwad,"Thergaon, Pimpri Chinchwad - MPCB","29-03-2025 16:00:00",18.616318,73.765797,NO2,29,96,53
India,Maharashtra,Pimpri-Chinchwad,"Thergaon, Pimpri Chinchwad - MPCB","29-03-2025 16:00:00",18.616318,73.765797,OZONE,2,50,27
India,Maharashtra,Pune,"Hadapsar, Pune - IITM","29-03-2025 16:00:00",18.501793,73.927532,PM2.5,56,183,98
India,Maharashtra,Pune,"Hadapsar, Pune - IITM","29-03-2025 16:00:00",18.501793,73.927532,NO2,79,108,93
India,Maharashtra,Pune,"Karve Road, Pune - MPCB","29-03-2025 16:00:00",18.5011743,73.8165527,SO2,11,18,17
India,Maharashtra,Pune,"Karve Road, Pune - MPCB","29-03-2025 16:00:00",18.5011743,73.8165527,CO,26,112,44
India,Maharashtra,Solapur,"Dnyaneshwar Nagar, Solapur - MPCB","29-03-2025 16:00:00",17.6336264,75.9132495,PM10,86,140,116
India,Maharashtra,Solapur,"Dnyaneshwar Nagar, Solapur - MPCB","29-03-2025 16:00:00",17.6336264,75.9132495,NH3,7,24,12
India,Maharashtra,Solapur,"Ratandeep Housing Society, Solapur - MPCB","29-03-2025 16:00:00",17.65439,75.90649,SO2,14,32,19
India,Maharashtra,Pune,"Mhada Colony, Pune - IITM","29-03-2025 16:00:00",18.573040,73.927715,PM2.5,67,223,121
India,Maharashtra,Pune,"Revenue Colony-Shivajinagar, Pune - IITM","29-03-2025 16:00:00",18.530085,73.849598,SO2,4,40,14
India,Maharashtra,Pune,"Revenue Colony-Shivajinagar, Pune - IITM","29-03-2025 16:00:00",18.530085,73.849598,CO,68,88,82
India,Maharashtra,Nagpur,"Ambazari, Nagpur - MPCB","29-03-2025 16:00:00",21.121801,79.04952,OZONE,40,136,94
India,Maharashtra,Nagpur,"Mahal, Nagpur - MPCB","29-03-2025 16:00:00",21.14472,79.107595,PM2.5,2,112,26
India,Odisha,Baripada,"Meher Colony, Baripada - OSPCB","29-03-2025 16:00:00",21.941841,86.728318,PM2.5,36,165,94
India,Odisha,Bhubaneswar,"Lingraj Mandir, Bhubaneswar - OSPCB","29-03-2025 16:00:00",20.240790,85.836784,OZONE,16,67,39
India,Odisha,Bhubaneswar,"Patia, Bhubaneswar - OSPCB","29-03-2025 16:00:00",20.34652,85.81630,PM2.5,25,123,60
India,Odisha,Bhubaneswar,"Patia, Bhubaneswar - OSPCB","29-03-2025 16:00:00",20.34652,85.81630,CO,19,50,31
India,Odisha,Bileipada,"Tata Township, Bileipada - OSPCB","29-03-2025 16:00:00",22.06156703,85.47409613,NO2,7,7,7
India,Odisha,Bileipada,"Tata Township, Bileipada - OSPCB","29-03-2025 16:00:00",22.06156703,85.47409613,NH3,4,4,4
India,Odisha,Bileipada,"Tata Township, Bileipada - OSPCB","29-03-2025 16:00:00",22.06156703,85.47409613,SO2,1,5,3
India,Odisha,Bileipada,"Tata Township, Bileipada - OSPCB","29-03-2025 16:00:00",22.06156703,85.47409613,CO,19,51,33
India,Punjab,Bathinda,"Hardev Nagar, Bathinda - PPCB","29-03-2025 16:00:00",30.233011,74.907758,SO2,2,23,13
India,Punjab,Jalandhar,"Civil Line, Jalandhar - PPCB","29-03-2025 16:00:00",31.321907,75.578914,PM2.5,5,67,24
India,Punjab,Jalandhar,"Civil Line, Jalandhar - PPCB","29-03-2025 16:00:00",31.321907,75.578914,NO2,28,32,30
India,Punjab,Khanna,"Kalal Majra, Khanna - PPCB","29-03-2025 16:00:00","30.736056 ",76.209694,NO2,26,29,28
India,Punjab,Khanna,"Kalal Majra, Khanna - PPCB","29-03-2025 16:00:00","30.736056 ",76.209694,CO,108,112,111
India,Punjab,Ludhiana,"Punjab Agricultural University, Ludhiana - PPCB","29-03-2025 16:00:00",30.9028,75.8086,PM10,114,127,119
India,Punjab,Ludhiana,"Punjab Agricultural University, Ludhiana - PPCB","29-03-2025 16:00:00",30.9028,75.8086,CO,4,84,46
India,Odisha,Rourkela,"Raghunathpali, Rourkela - OSPCB","29-03-2025 16:00:00",22.220833,84.809444,NH3,2,6,3
India,Odisha,Rourkela,"Sector-2, Rourkela - OSPCB","29-03-2025 16:00:00",22.24500000,84.88111111,PM2.5,31,84,51
India,Odisha,Rourkela,"Sector-2, Rourkela - OSPCB","29-03-2025 16:00:00",22.24500000,84.88111111,NO2,10,26,23
India,Odisha,Talcher,"Talcher Coalfields,Talcher - OSPCB","29-03-2025 16:00:00",20.9360711,85.1707021,PM10,NA,NA,NA
India,Odisha,Talcher,"Talcher Coalfields,Talcher - OSPCB","29-03-2025 16:00:00",20.9360711,85.1707021,CO,45,135,102
India,Odisha,Tensa,"Barsua Iron Ore Mines, Tensa - OSPCB","29-03-2025 16:00:00",21.869985,85.167016,PM10,116,172,142
India,Odisha,Tensa,"Barsua Iron Ore Mines, Tensa - OSPCB","29-03-2025 16:00:00",21.869985,85.167016,NO2,12,41,24
India,Odisha,Angul,"Hakimapada, Angul - OSPCB","29-03-2025 16:00:00",20.832874,85.104082,OZONE,8,102,55
India,Odisha,Balasore,"Kalidaspur, Balasore - OSPCB","29-03-2025 16:00:00",21.51161,86.89088,PM2.5,107,240,168
India,Odisha,Balasore,"Kalidaspur, Balasore - OSPCB","29-03-2025 16:00:00",21.51161,86.89088,PM10,113,225,151
India,Odisha,Balasore,"Kalidaspur, Balasore - OSPCB","29-03-2025 16:00:00",21.51161,86.89088,NO2,13,73,33
India,Odisha,Balasore,"Kalidaspur, Balasore - OSPCB","29-03-2025 16:00:00",21.51161,86.89088,NH3,3,5,4
India,Odisha,Barbil,"Forest Office, Barbil - OSPCB","29-03-2025 16:00:00",22.1166054,85.3945546,PM10,100,335,185
India,Odisha,Nayagarh,"Dabuna, Nayagarh - OSPCB","29-03-2025 16:00:00",21.847279,85.416905,CO,21,37,30
India,Odisha,Rairangpur,"Divisional Forest Office, Rairangpur - OSPCB","29-03-2025 16:00:00",22.265816,86.174829,NO2,NA,NA,NA
India,Odisha,Rourkela,"Fertilizer Township, Rourkela - OSPCB","29-03-2025 16:00:00",22.18972222,84.86277778,PM2.5,111,162,128
India,Odisha,Rourkela,"Fertilizer Township, Rourkela - OSPCB","29-03-2025 16:00:00",22.18972222,84.86277778,PM10,108,117,110
India,Odisha,Rourkela,"Fertilizer Township, Rourkela - OSPCB","29-03-2025 16:00:00",22.18972222,84.86277778,NO2,7,52,16
India,Punjab,"Mandi Gobindgarh","RIMT University, Mandi Gobindgarh - PPCB","29-03-2025 16:00:00",30.649961,76.331442,NH3,7,7,7
India,Punjab,Patiala,"Model Town, Patiala - PPCB","29-03-2025 16:00:00",30.349388,76.366642,NH3,3,3,3
India,Punjab,Patiala,"Model Town, Patiala - PPCB","29-03-2025 16:00:00",30.349388,76.366642,SO2,13,64,25
India,Rajasthan,Ajmer,"Civil Lines,  Ajmer - RSPCB","29-03-2025 16:00:00",26.470859,74.646594,PM10,80,142,114
India,Nagaland,Kohima,"PWD Juction, Kohima - NPCB","29-03-2025 16:00:00",25.6635413,94.0989878,PM10,102,175,136
India,Nagaland,Kohima,"PWD Juction, Kohima - NPCB","29-03-2025 16:00:00",25.6635413,94.0989878,CO,1,30,11
India,Odisha,Angul,"Hakimapada, Angul - OSPCB","29-03-2025 16:00:00",20.832874,85.104082,NH3,3,6,5
India,Odisha,Angul,"Hakimapada, Angul - OSPCB","29-03-2025 16:00:00",20.832874,85.104082,SO2,45,133,86
India,Odisha,Brajrajnagar,"GM Office, Brajrajnagar - OSPCB","29-03-2025 16:00:00",21.8004996,83.8396977,PM10,73,198,134
India,Odisha,Cuttack,"CDA Area, Cuttack - OSPCB","29-03-2025 16:00:00","20.48891     ","85.84768     ",CO,92,106,98
India,Manipur,Imphal,"DM College of Science, Imphal - Manipur PCB","29-03-2025 16:00:00",24.8207389,93.9423085,PM2.5,38,98,72
India,Manipur,Imphal,"DM College of Science, Imphal - Manipur PCB","29-03-2025 16:00:00",24.8207389,93.9423085,NH3,2,2,2
India,Rajasthan,Chittorgarh,"Shastri Nagar, Chittorgarh - RSPCB","29-03-2025 16:00:00",24.892047,74.623527,NO2,9,98,43
India,Rajasthan,Chittorgarh,"Shastri Nagar, Chittorgarh - RSPCB","29-03-2025 16:00:00",24.892047,74.623527,SO2,1,104,24
India,Rajasthan,Chittorgarh,"Shastri Nagar, Chittorgarh - RSPCB","29-03-2025 16:00:00",24.892047,74.623527,CO,18,119,34
India,Rajasthan,Churu,"Subash Chowk, Churu - RSPCB","29-03-2025 16:00:00",28.296139,74.961696,CO,12,38,23
India,Rajasthan,Churu,"Subash Chowk, Churu - RSPCB","29-03-2025 16:00:00",28.296139,74.961696,OZONE,61,109,86
India,Rajasthan,Dausa,"Khatikan Mohalla, Dausa - RSPCB","29-03-2025 16:00:00",26.895552,76.334753,PM2.5,2,50,20
India,Rajasthan,Baran,"Bamboliya, Baran - RSPCB","29-03-2025 16:00:00",25.106006,76.469948,SO2,1,12,7
India,Rajasthan,Bharatpur,"Krishna Nagar, Bharatpur - RSPCB","29-03-2025 16:00:00",27.215415,77.50873,NH3,3,4,3
India,Rajasthan,Bhilwara,"Pratap Nagar, Bhilwara - RSPCB","29-03-2025 16:00:00",25.339605,74.618883,PM2.5,2,117,50
India,Rajasthan,Bhilwara,"Pratap Nagar, Bhilwara - RSPCB","29-03-2025 16:00:00",25.339605,74.618883,OZONE,26,91,70
India,Rajasthan,Jaipur,"Mansarovar Sector-12, Jaipur - RSPCB","29-03-2025 16:00:00",26.843698,75.766894,PM10,63,148,112
India,Rajasthan,Jaipur,"Mansarovar Sector-12, Jaipur - RSPCB","29-03-2025 16:00:00",26.843698,75.766894,NH3,3,15,4
India,Rajasthan,Jaipur,"Mansarovar Sector-12, Jaipur - RSPCB","29-03-2025 16:00:00",26.843698,75.766894,CO,11,32,20
India,Rajasthan,Jaipur,"Police Commissionerate, Jaipur - RSPCB","29-03-2025 16:00:00",26.9164092,75.7994901,PM2.5,45,115,78
India,Rajasthan,Dungarpur,"Bhoiwada, Dungarpur - RSPCB","29-03-2025 16:00:00",23.837789,73.714926,OZONE,31,130,83
India,Rajasthan,Hanumangarh,"Housing Board, Hanumangarh - RSPCB","29-03-2025 16:00:00",29.610750,74.283608,PM2.5,12,372,151
India,Rajasthan,Hanumangarh,"Housing Board, Hanumangarh - RSPCB","29-03-2025 16:00:00",29.610750,74.283608,CO,47,102,61
India,Rajasthan,Jaipur,"RIICO Sitapura, Jaipur - RSPCB","29-03-2025 16:00:00",26.786682,75.827928,SO2,2,4,3
India,Rajasthan,Jaipur,"RIICO Sitapura, Jaipur - RSPCB","29-03-2025 16:00:00",26.786682,75.827928,CO,4,36,15
India,Rajasthan,Jaipur,"Sector-2 Murlipura, Jaipur - RSPCB","29-03-2025 16:00:00",26.960669,75.771817,OZONE,29,75,65
India,Rajasthan,Alwar,"Moti Doongri, Alwar - RSPCB","29-03-2025 16:00:00",27.554793,76.611536,NH3,14,26,21
India,Rajasthan,Baran,"Bamboliya, Baran - RSPCB","29-03-2025 16:00:00",25.106006,76.469948,PM10,65,211,110
India,Rajasthan,Bhiwadi,"RIICO Ind. Area III, Bhiwadi - RSPCB","29-03-2025 16:00:00",28.194909,76.862296,SO2,3,31,8
India,Rajasthan,Bhiwadi,"RIICO Ind. Area III, Bhiwadi - RSPCB","29-03-2025 16:00:00",28.194909,76.862296,OZONE,11,73,48
India,Rajasthan,Dungarpur,"Bhoiwada, Dungarpur - RSPCB","29-03-2025 16:00:00",23.837789,73.714926,PM10,NA,NA,NA
India,Rajasthan,Dungarpur,"Bhoiwada, Dungarpur - RSPCB","29-03-2025 16:00:00",23.837789,73.714926,NH3,NA,NA,NA
India,Rajasthan,Bundi,"New Colony, Bundi - RSPCB","29-03-2025 16:00:00",25.435774,75.644272,PM2.5,9,63,37
India,Rajasthan,Pali,"Indira Colony Vistar, Pali - RSPCB","29-03-2025 16:00:00",25.771061," 73.340227",OZONE,7,73,37
India,Rajasthan,Pratapgarh,"Pragati Nagar, Pratapgarh - RSPCB","29-03-2025 16:00:00",24.041198,74.780702,PM2.5,10,182,39
India,Rajasthan,Pratapgarh,"Pragati Nagar, Pratapgarh - RSPCB","29-03-2025 16:00:00",24.041198,74.780702,NO2,10,48,22
India,Rajasthan,Pratapgarh,"Pragati Nagar, Pratapgarh - RSPCB","29-03-2025 16:00:00",24.041198,74.780702,SO2,1,14,5
India,Rajasthan,Pratapgarh,"Pragati Nagar, Pratapgarh - RSPCB","29-03-2025 16:00:00",24.041198,74.780702,OZONE,18,114,79
India,Rajasthan,Rajsamand,"Dhoinda, Rajsamand - RSPCB","29-03-2025 16:00:00",25.036360,73.883502,PM10,26,122,74
India,Rajasthan,Rajsamand,"Dhoinda, Rajsamand - RSPCB","29-03-2025 16:00:00",25.036360,73.883502,NO2,4,28,14
India,Rajasthan,Rajsamand,"Dhoinda, Rajsamand - RSPCB","29-03-2025 16:00:00",25.036360,73.883502,CO,5,43,18
India,Rajasthan,"Sawai Madhopur","Sahu Nagar, Sawai Madhopur - RSPCB","29-03-2025 16:00:00",26.031443,76.359327,PM10,89,211,140
India,Rajasthan,Sikar,"Radhakishan Pura, Sikar - RSPCB","29-03-2025 16:00:00",27.608912,75.153302,PM10,101,314,167
India,Rajasthan,Sikar,"Radhakishan Pura, Sikar - RSPCB","29-03-2025 16:00:00",27.608912,75.153302,OZONE,52,88,78
India,Rajasthan,Sirohi,"Vedhaynath Colony, Sirohi - RSPCB","29-03-2025 16:00:00",24.885261,72.857549,PM2.5,2,70,22
India,Rajasthan,Sirohi,"Vedhaynath Colony, Sirohi - RSPCB","29-03-2025 16:00:00",24.885261,72.857549,NH3,1,2,1
India,Rajasthan,"Sri Ganganagar","Old City, Sri Ganganagar - RSPCB","29-03-2025 16:00:00",29.931624,73.864511,PM10,88,306,184
India,Rajasthan,"Sri Ganganagar","Old City, Sri Ganganagar - RSPCB","29-03-2025 16:00:00",29.931624,73.864511,CO,42,77,53
India,Rajasthan,Jhunjhunu,"Indra Nagar, Jhunjhunu - RSPCB","29-03-2025 16:00:00",28.108988,75.386577,PM10,84,180,134
India,Rajasthan,Jhunjhunu,"Indra Nagar, Jhunjhunu - RSPCB","29-03-2025 16:00:00",28.108988,75.386577,NO2,9,20,14
India,Rajasthan,Jhunjhunu,"Indra Nagar, Jhunjhunu - RSPCB","29-03-2025 16:00:00",28.108988,75.386577,CO,10,60,40
India,Rajasthan,Jodhpur,"Collectorate, Jodhpur - RSPCB","29-03-2025 16:00:00",26.268249,73.0193853,PM2.5,27,216,89
India,Rajasthan,Jodhpur,"Samrat Ashok Udhyan, Jodhpur - RSPCB","29-03-2025 16:00:00",26.253384,72.976571,NO2,3,18,10
India,Rajasthan,Jodhpur,"Samrat Ashok Udhyan, Jodhpur - RSPCB","29-03-2025 16:00:00",26.253384,72.976571,CO,8,28,13
India,Rajasthan,Karauli,"Satyawati Vihar, Karauli - RSPCB","29-03-2025 16:00:00",26.506177,77.025989,PM10,51,138,109
India,Rajasthan,Kota,"Shrinath Puram, Kota - RSPCB","29-03-2025 16:00:00",25.14389,75.821256,PM2.5,42,188,90
India,Rajasthan,Kota,"Shrinath Puram, Kota - RSPCB","29-03-2025 16:00:00",25.14389,75.821256,NO2,14,18,16
India,Rajasthan,Nagaur,"Karni Colony, Nagaur - RSPCB","29-03-2025 16:00:00",27.213494,73.734444,PM10,127,417,164
India,Rajasthan,Jaipur,"Shastri Nagar, Jaipur - RSPCB","29-03-2025 16:00:00",26.9502929,75.730943,NO2,10,32,19
India,Rajasthan,Jalore,"Mudtra Sili, Jalore - RSPCB","29-03-2025 16:00:00",25.344694,72.626208,PM2.5,17,59,36
India,Rajasthan,Jalore,"Mudtra Sili, Jalore - RSPCB","29-03-2025 16:00:00",25.344694,72.626208,PM10,81,193,122
India,Rajasthan,Jodhpur,"Digari Kalan, Jodhpur - RSPCB","29-03-2025 16:00:00",26.295810,73.082283,OZONE,30,64,53
India,Rajasthan,Jodhpur,"Jhalamand, Jodhpur - RSPCB","29-03-2025 16:00:00",26.215415,73.070156,NH3,2,7,4
India,Rajasthan,Kota,"Dhanmandi, Kota - RSPCB","29-03-2025 16:00:00",25.164090,75.858137,NO2,26,116,47
India,Rajasthan,Kota,"Nayapura, Kota - RSPCB","29-03-2025 16:00:00",25.196024,75.855668,NH3,3,72,15
India,Rajasthan,Tonk,"Shastri Nagar, Tonk - RSPCB","29-03-2025 16:00:00",26.159933,75.780517,PM10,65,177,114
India,Rajasthan,Tonk,"Shastri Nagar, Tonk - RSPCB","29-03-2025 16:00:00",26.159933,75.780517,NO2,9,26,15
India,Rajasthan,Tonk,"Shastri Nagar, Tonk - RSPCB","29-03-2025 16:00:00",26.159933,75.780517,OZONE,38,103,75
India,Sikkim,Gangtok,"Zero Point GICI, Gangtok - SSPCB","29-03-2025 16:00:00",27.338530,88.614099,PM10,85,125,109
India,Sikkim,Gangtok,"Zero Point GICI, Gangtok - SSPCB","29-03-2025 16:00:00",27.338530,88.614099,NH3,1,1,1
India,Sikkim,Gangtok,"Zero Point GICI, Gangtok - SSPCB","29-03-2025 16:00:00",27.338530,88.614099,CO,19,37,26
India,TamilNadu,Chengalpattu,"Crescent University, Chengalpattu - TNPCB","29-03-2025 16:00:00",12.8777316,80.0834807,NO2,13,14,14
India,TamilNadu,Chengalpattu,"Crescent University, Chengalpattu - TNPCB","29-03-2025 16:00:00",12.8777316,80.0834807,NH3,2,2,2
India,TamilNadu,Chengalpattu,"Crescent University, Chengalpattu - TNPCB","29-03-2025 16:00:00",12.8777316,80.0834807,SO2,14,25,16
India,TamilNadu,Chennai,"Royapuram, Chennai - TNPCB","29-03-2025 16:00:00",13.1036,80.2909,PM10,29,115,60
India,TamilNadu,Chennai,"Velachery Res. Area, Chennai - CPCB","29-03-2025 16:00:00",13.0052189,80.2398125,NO2,14,17,15
India,TamilNadu,Chennai,"Velachery Res. Area, Chennai - CPCB","29-03-2025 16:00:00",13.0052189,80.2398125,CO,42,94,64
India,TamilNadu,Coimbatore,"PSG College of Arts and Science, Coimbatore - TNPCB","29-03-2025 16:00:00",11.0328,77.0349,PM2.5,45,96,70
India,TamilNadu,Coimbatore,"SIDCO Kurichi, Coimbatore - TNPCB","29-03-2025 16:00:00",10.942451,76.978996,PM2.5,NA,NA,NA
India,TamilNadu,Coimbatore,"SIDCO Kurichi, Coimbatore - TNPCB","29-03-2025 16:00:00",10.942451,76.978996,PM10,52,76,61
India,TamilNadu,Thanjavur,"Parisutham Nagar, Thanjavur - TNPCB","29-03-2025 16:00:00",10.7654824,79.1389968,SO2,NA,NA,NA
India,TamilNadu,Thanjavur,"Parisutham Nagar, Thanjavur - TNPCB","29-03-2025 16:00:00",10.7654824,79.1389968,OZONE,5,19,6
India,TamilNadu,Tiruchirappalli,"St Joseph College, Tiruchirappalli - TNPCB","29-03-2025 16:00:00",10.830158,78.691849,CO,6,14,7
India,TamilNadu,Tirunelveli,"Municipal Corporation Office, Tirunelveli - TNPCB","29-03-2025 16:00:00",8.728442,77.6962,PM10,16,31,22
India,TamilNadu,Tirunelveli,"Municipal Corporation Office, Tirunelveli - TNPCB","29-03-2025 16:00:00",8.728442,77.6962,NO2,10,35,22
India,TamilNadu,Tirunelveli,"Municipal Corporation Office, Tirunelveli - TNPCB","29-03-2025 16:00:00",8.728442,77.6962,CO,40,43,42
India,TamilNadu,Perundurai,"SIPCOT Industrial Park, Perundurai - TNPCB","29-03-2025 16:00:00",11.258242,77.552761,NO2,2,5,4
India,TamilNadu,Perundurai,"SIPCOT Industrial Park, Perundurai - TNPCB","29-03-2025 16:00:00",11.258242,77.552761,NH3,1,3,2
India,TamilNadu,Perundurai,"SIPCOT Industrial Park, Perundurai - TNPCB","29-03-2025 16:00:00",11.258242,77.552761,CO,46,50,49
India,TamilNadu,Ramanathapuram,"Chalai Bazaar, Ramanathapuram - TNPCB","29-03-2025 16:00:00",9.36399,78.831977,PM10,33,97,58
India,TamilNadu,Ranipet,"VOC Nagar_SIPCOT, Ranipet - TNPCB","29-03-2025 16:00:00",12.952707,79.30394,PM10,NA,NA,NA
India,TamilNadu,Ranipet,"VOC Nagar_SIPCOT, Ranipet - TNPCB","29-03-2025 16:00:00",12.952707,79.30394,CO,16,22,19
India,TamilNadu,Cuddalore,"Semmandalam, Cuddalore - TNPCB","29-03-2025 16:00:00",11.7637683,79.7499835,PM10,19,60,35
India,TamilNadu,Dindigul,"Mendonsa Colony, Dindigul - TNPCB","29-03-2025 16:00:00",10.358535,77.984321,PM10,84,160,113
India,TamilNadu,Gummidipoondi,"Anthoni Pillai Nagar, Gummidipoondi - TNPCB","29-03-2025 16:00:00",13.4127,80.1081,PM10,68,143,100
India,TamilNadu,Gummidipoondi,"Anthoni Pillai Nagar, Gummidipoondi - TNPCB","29-03-2025 16:00:00",13.4127,80.1081,NH3,3,13,5
India,TamilNadu,Hosur,"SIPCOT Phase-1, Hosur - TNPCB","29-03-2025 16:00:00",12.746998,77.813811,PM10,58,123,82
India,TamilNadu,Kanchipuram,"Kilambi, Kanchipuram - TNPCB","29-03-2025 16:00:00",12.864618,79.659968,PM10,25,157,62
India,TamilNadu,Kanchipuram,"Kilambi, Kanchipuram - TNPCB","29-03-2025 16:00:00",12.864618,79.659968,NH3,1,4,3
India,TamilNadu,Kanchipuram,"Kilambi, Kanchipuram - TNPCB","29-03-2025 16:00:00",12.864618,79.659968,OZONE,9,82,38
India,TamilNadu,Karur,"Kamadenu Nagar, Karur - TNPCB","29-03-2025 16:00:00",10.967820,78.080882,PM2.5,15,65,34
India,TamilNadu,Karur,"Kamadenu Nagar, Karur - TNPCB","29-03-2025 16:00:00",10.967820,78.080882,OZONE,14,46,28
India,TamilNadu,Madurai,"Uchapatti, Madurai - TNPCB","29-03-2025 16:00:00",9.865935,78.022669,NH3,3,3,3
India,TamilNadu,Chengalpattu,"Crescent University, Chengalpattu - TNPCB","29-03-2025 16:00:00",12.8777316,80.0834807,OZONE,5,6,6
India,TamilNadu,Chennai,"Kodungaiyur, Chennai - TNPCB","29-03-2025 16:00:00",13.1278,80.2642,OZONE,14,59,38
India,TamilNadu,Chennai,"Manali Village, Chennai - TNPCB","29-03-2025 16:00:00",13.1662,80.2584,NO2,2,7,4
India,TamilNadu,Chennai,"Manali Village, Chennai - TNPCB","29-03-2025 16:00:00",13.1662,80.2584,NH3,NA,NA,NA
India,TamilNadu,Namakkal,"Ponnusamy Nagar, Namakkal - TNPCB","29-03-2025 16:00:00",11.273992,78.163545,OZONE,10,11,10
India,TamilNadu,Ooty,"Bombay Castel, Ooty - TNPCB","29-03-2025 16:00:00",11.4068288,76.7138973,CO,24,28,26
India,TamilNadu,Palkalaiperur,"Bharathidasan University, Palkalaiperur - TNPCB","29-03-2025 16:00:00",10.681158,78.741746,PM10,NA,NA,NA
India,TamilNadu,Chennai,"Manali Village, Chennai - TNPCB","29-03-2025 16:00:00",13.1662,80.2584,OZONE,34,50,37
India,TamilNadu,Chennai,"Manali, Chennai - CPCB","29-03-2025 16:00:00",13.164544,80.26285,PM2.5,24,96,46
India,TamilNadu,Chennai,"Perungudi, Chennai - TNPCB","29-03-2025 16:00:00",12.9533,80.2357,NH3,3,4,4
India,Telangana,Hyderabad,"Somajiguda, Hyderabad - TSPCB","29-03-2025 16:00:00",17.417094,78.457437,NO2,18,46,33
India,Telangana,Hyderabad,"Somajiguda, Hyderabad - TSPCB","29-03-2025 16:00:00",17.417094,78.457437,SO2,3,11,8
India,Telangana,Hyderabad,"Somajiguda, Hyderabad - TSPCB","29-03-2025 16:00:00",17.417094,78.457437,OZONE,11,15,11
India,Telangana,Hyderabad,"Zoo Park, Hyderabad - TSPCB","29-03-2025 16:00:00",17.349694,78.451437,CO,4,19,7
India,Telangana,Hyderabad,"Zoo Park, Hyderabad - TSPCB","29-03-2025 16:00:00",17.349694,78.451437,OZONE,21,27,25
India,Tripura,Agartala,"Bardowali, Agartala - Tripura SPCB","29-03-2025 16:00:00",23.8175497,91.2726974,PM10,25,45,35
India,Tripura,Agartala,"Bardowali, Agartala - Tripura SPCB","29-03-2025 16:00:00",23.8175497,91.2726974,NO2,4,17,9
India,Tripura,Agartala,"Bardowali, Agartala - Tripura SPCB","29-03-2025 16:00:00",23.8175497,91.2726974,NH3,3,7,4
India,Tripura,Agartala,"Bardowali, Agartala - Tripura SPCB","29-03-2025 16:00:00",23.8175497,91.2726974,CO,7,18,10
India,Uttar_Pradesh,Agra,"Rohta, Agra - UPPCB","29-03-2025 16:00:00",27.106972,78.000111,PM10,5,108,54
India,Uttar_Pradesh,Agra,"Rohta, Agra - UPPCB","29-03-2025 16:00:00",27.106972,78.000111,NO2,13,13,13
India,TamilNadu,Tirupur,"Kumaran College, Tirupur - TNPCB","29-03-2025 16:00:00",11.0973603,77.3228673,PM10,7,133,67
India,TamilNadu,Tirupur,"Kumaran College, Tirupur - TNPCB","29-03-2025 16:00:00",11.0973603,77.3228673,SO2,2,31,8
India,TamilNadu,Tirupur,"Kumaran College, Tirupur - TNPCB","29-03-2025 16:00:00",11.0973603,77.3228673,CO,52,83,63
India,TamilNadu,Tirupur,"Kumaran College, Tirupur - TNPCB","29-03-2025 16:00:00",11.0973603,77.3228673,OZONE,NA,NA,NA
India,TamilNadu,Vellore,"Vasanthapuram, Vellore - TNPCB","29-03-2025 16:00:00",12.909494,79.131861,NH3,1,1,1
India,TamilNadu,Virudhunagar,"Collectorate Office, Virudhunagar - TNPCB","29-03-2025 16:00:00",9.559382,77.948828,PM2.5,31,240,67
India,TamilNadu,Virudhunagar,"Collectorate Office, Virudhunagar - TNPCB","29-03-2025 16:00:00",9.559382,77.948828,NO2,19,19,19
India,Telangana,Hyderabad,"Bollaram Industrial Area, Hyderabad - TSPCB","29-03-2025 16:00:00",17.540891,78.358528,PM2.5,65,153,95
India,Telangana,Hyderabad,"Bollaram Industrial Area, Hyderabad - TSPCB","29-03-2025 16:00:00",17.540891,78.358528,NO2,2,54,31
India,Telangana,Hyderabad,"Bollaram Industrial Area, Hyderabad - TSPCB","29-03-2025 16:00:00",17.540891,78.358528,NH3,1,7,4
India,Uttar_Pradesh,Agra,"Shahjahan Garden, Agra - UPPCB","29-03-2025 16:00:00",27.169338,78.03582,CO,8,16,9
India,Uttar_Pradesh,Baghpat,"Sardar Patel Inter College, Baghpat - UPPCB","29-03-2025 16:00:00",28.964949,77.278761,NH3,NA,NA,NA
India,Uttar_Pradesh,Baghpat,"Sardar Patel Inter College, Baghpat - UPPCB","29-03-2025 16:00:00",28.964949,77.278761,SO2,NA,NA,NA
India,Uttar_Pradesh,Baghpat,"Sardar Patel Inter College, Baghpat - UPPCB","29-03-2025 16:00:00",28.964949,77.278761,OZONE,42,61,53
India,Uttar_Pradesh,Bareilly,"Civil Lines, Bareilly - UPPCB","29-03-2025 16:00:00",28.359581,79.414455,PM2.5,4,12,6
India,Uttar_Pradesh,Bareilly,"Civil Lines, Bareilly - UPPCB","29-03-2025 16:00:00",28.359581,79.414455,PM10,10,40,14
India,Uttar_Pradesh,Bareilly,"Civil Lines, Bareilly - UPPCB","29-03-2025 16:00:00",28.359581,79.414455,CO,2,26,8
India,Telangana,Hyderabad,"IDA Pashamylaram, Hyderabad - TSPCB","29-03-2025 16:00:00",17.5316895,78.218939,CO,4,60,42
India,Telangana,Hyderabad,"Kokapet, Hyderabad - TSPCB","29-03-2025 16:00:00",17.393559,78.339194,PM2.5,64,69,66
India,Telangana,Hyderabad,"Kokapet, Hyderabad - TSPCB","29-03-2025 16:00:00",17.393559,78.339194,NH3,3,3,3
India,Telangana,Hyderabad,"Kokapet, Hyderabad - TSPCB","29-03-2025 16:00:00",17.393559,78.339194,SO2,10,13,10
India,Telangana,Hyderabad,"Kompally Municipal Office, Hyderabad - TSPCB","29-03-2025 16:00:00",17.544899,78.486949,SO2,13,60,32
India,Telangana,Hyderabad,"Nacharam_TSIIC IALA, Hyderabad - TSPCB","29-03-2025 16:00:00",17.429398,78.569354,PM10,67,81,71
India,Telangana,Hyderabad,"Nacharam_TSIIC IALA, Hyderabad - TSPCB","29-03-2025 16:00:00",17.429398,78.569354,OZONE,26,48,37
India,Telangana,Hyderabad,"New Malakpet, Hyderabad - TSPCB","29-03-2025 16:00:00",17.37206,78.50864,OZONE,9,48,42
India,Telangana,Hyderabad,"Ramachandrapuram, Hyderabad - TSPCB","29-03-2025 16:00:00",17.528544,78.286195,NO2,12,14,12
India,Telangana,Hyderabad,"Central University, Hyderabad - TSPCB","29-03-2025 16:00:00",17.460103,78.334361,PM10,76,124,99
India,Telangana,Hyderabad,"Central University, Hyderabad - TSPCB","29-03-2025 16:00:00",17.460103,78.334361,SO2,6,20,12
India,Telangana,Hyderabad,"ECIL Kapra, Hyderabad - TSPCB","29-03-2025 16:00:00",17.470431,78.566959,PM2.5,NA,NA,NA
India,Telangana,Hyderabad,"ECIL Kapra, Hyderabad - TSPCB","29-03-2025 16:00:00",17.470431,78.566959,NO2,NA,NA,NA
India,Telangana,Hyderabad,"ECIL Kapra, Hyderabad - TSPCB","29-03-2025 16:00:00",17.470431,78.566959,CO,37,55,47
India,Telangana,Hyderabad,"IDA Pashamylaram, Hyderabad - TSPCB","29-03-2025 16:00:00",17.5316895,78.218939,PM10,103,156,137
India,Uttar_Pradesh,Agra,"Sector-3B Avas Vikas Colony, Agra - UPPCB","29-03-2025 16:00:00",27.19412,77.96237,PM2.5,18,82,47
India,Uttar_Pradesh,Agra,"Sector-3B Avas Vikas Colony, Agra - UPPCB","29-03-2025 16:00:00",27.19412,77.96237,NO2,30,32,31
India,Uttar_Pradesh,Agra,"Rohta, Agra - UPPCB","29-03-2025 16:00:00",27.106972,78.000111,SO2,11,17,13
India,Uttar_Pradesh,"Greater Noida","Knowledge Park - III, Greater Noida - UPPCB","29-03-2025 16:00:00",28.47272,77.482000,PM10,44,210,99
India,Uttar_Pradesh,"Greater Noida","Knowledge Park - III, Greater Noida - UPPCB","29-03-2025 16:00:00",28.47272,77.482000,NH3,5,8,6
India,Uttar_Pradesh,"Greater Noida","Knowledge Park - III, Greater Noida - UPPCB","29-03-2025 16:00:00",28.47272,77.482000,SO2,2,18,11
India,Uttar_Pradesh,"Greater Noida","Knowledge Park - V, Greater Noida - UPPCB","29-03-2025 16:00:00",28.557054,77.453663,NH3,6,8,7
India,Uttar_Pradesh,"Greater Noida","Knowledge Park - V, Greater Noida - UPPCB","29-03-2025 16:00:00",28.557054,77.453663,OZONE,56,116,90
India,Uttar_Pradesh,Hapur,"Anand Vihar, Hapur - UPPCB","29-03-2025 16:00:00",28.725645,77.749675,SO2,24,58,39
India,Uttar_Pradesh,Meerut,"Jai Bhim Nagar, Meerut - UPPCB","29-03-2025 16:00:00",28.9535882,77.7622941,SO2,2,7,4
India,Uttar_Pradesh,Meerut,"Jai Bhim Nagar, Meerut - UPPCB","29-03-2025 16:00:00",28.9535882,77.7622941,OZONE,30,95,62
India,Uttar_Pradesh,Meerut,"Pallavpuram Phase 2, Meerut - UPPCB","29-03-2025 16:00:00",29.063510,77.709723,PM10,66,150,115
India,Uttar_Pradesh,Meerut,"Pallavpuram Phase 2, Meerut - UPPCB","29-03-2025 16:00:00",29.063510,77.709723,NO2,3,13,7
India,Uttar_Pradesh,Firozabad,"Vibhab Nagar, Firozabad - UPPCB","29-03-2025 16:00:00",27.1594,78.3953,NH3,2,2,2
India,Uttar_Pradesh,Firozabad,"Vibhab Nagar, Firozabad - UPPCB","29-03-2025 16:00:00",27.1594,78.3953,OZONE,9,174,26
India,Uttar_Pradesh,Ghaziabad,"Indirapuram, Ghaziabad - UPPCB","29-03-2025 16:00:00",28.646233,77.358075,CO,32,52,40
India,Uttar_Pradesh,Ghaziabad,"Indirapuram, Ghaziabad - UPPCB","29-03-2025 16:00:00",28.646233,77.358075,OZONE,25,51,40
India,Uttar_Pradesh,Lucknow,"Kukrail Picnic Spot-1, Lucknow - UPPCB","29-03-2025 16:00:00",26.90723,80.98579,OZONE,33,60,44
India,Uttar_Pradesh,Lucknow,"Talkatora District Industries Center, Lucknow - CPCB","29-03-2025 16:00:00",26.83399722,80.8917361,NO2,31,48,38
India,Uttar_Pradesh,Lucknow,"Talkatora District Industries Center, Lucknow - CPCB","29-03-2025 16:00:00",26.83399722,80.8917361,CO,8,57,27
India,Uttar_Pradesh,Bulandshahr,"Yamunapuram, Bulandshahr - UPPCB","29-03-2025 16:00:00",28.406963,77.849831,NH3,5,14,8
India,Uttar_Pradesh,Firozabad,"Nagla Bhau, Firozabad - UPPCB","29-03-2025 16:00:00",27.168897,78.376960,NO2,17,17,17
India,Uttar_Pradesh,Lucknow,"B R Ambedkar University, Lucknow - UPPCB","29-03-2025 16:00:00",26.766433,80.927299,PM2.5,20,157,43
India,Uttar_Pradesh,Lucknow,"B R Ambedkar University, Lucknow - UPPCB","29-03-2025 16:00:00",26.766433,80.927299,NH3,2,3,2
India,Uttar_Pradesh,Kanpur,"NSI Kalyanpur, Kanpur - UPPCB","29-03-2025 16:00:00",26.509954,80.249612,NH3,2,2,2
India,Uttar_Pradesh,Kanpur,"NSI Kalyanpur, Kanpur - UPPCB","29-03-2025 16:00:00",26.509954,80.249612,CO,23,32,25
India,Uttar_Pradesh,Meerut,"Jai Bhim Nagar, Meerut - UPPCB","29-03-2025 16:00:00",28.9535882,77.7622941,PM10,68,172,112
India,Uttar_Pradesh,Ghaziabad,"Vasundhara, Ghaziabad - UPPCB","29-03-2025 16:00:00",28.6603346,77.3572563,CO,2,57,47
India,Uttar_Pradesh,Varanasi,"Bhelupur, Varanasi - UPPCB","29-03-2025 16:00:00",25.301778,82.996789,PM2.5,NA,NA,NA
India,Uttar_Pradesh,Varanasi,"Bhelupur, Varanasi - UPPCB","29-03-2025 16:00:00",25.301778,82.996789,NO2,8,8,8
India,Uttar_Pradesh,Varanasi,"Bhelupur, Varanasi - UPPCB","29-03-2025 16:00:00",25.301778,82.996789,NH3,1,1,1
India,Uttar_Pradesh,Varanasi,"Bhelupur, Varanasi - UPPCB","29-03-2025 16:00:00",25.301778,82.996789,CO,2,15,4
India,Uttar_Pradesh,Varanasi,"Bhelupur, Varanasi - UPPCB","29-03-2025 16:00:00",25.301778,82.996789,OZONE,1,22,9
India,Uttar_Pradesh,Varanasi,"IESD Banaras Hindu University, Varanasi - UPPCB","29-03-2025 16:00:00",25.262326,82.995408,CO,2,12,3
India,Uttar_Pradesh,Varanasi,"Maldahiya, Varanasi - UPPCB","29-03-2025 16:00:00",25.32393,82.99687,NO2,1,2,2
India,Uttar_Pradesh,Vrindavan,"Omex Eternity, Vrindavan - UPPCB","29-03-2025 16:00:00",27.5714090,77.6557570,PM2.5,11,38,16
India,Uttar_Pradesh,Vrindavan,"Omex Eternity, Vrindavan - UPPCB","29-03-2025 16:00:00",27.5714090,77.6557570,NH3,1,2,2
India,Uttar_Pradesh,Vrindavan,"Omex Eternity, Vrindavan - UPPCB","29-03-2025 16:00:00",27.5714090,77.6557570,OZONE,7,12,11
India,Uttar_Pradesh,Moradabad,"Eco Herbal Park, Moradabad - UPPCB","29-03-2025 16:00:00",28.840739,78.697531,PM2.5,16,32,23
India,Uttar_Pradesh,Moradabad,"Eco Herbal Park, Moradabad - UPPCB","29-03-2025 16:00:00",28.840739,78.697531,PM10,40,91,62
India,Uttar_Pradesh,Moradabad,"Employment Office, Moradabad - UPPCB","29-03-2025 16:00:00",28.88528,78.73880,NH3,3,4,4
India,Uttar_Pradesh,Moradabad,"Jigar Colony, Moradabad - UPPCB","29-03-2025 16:00:00",28.856664,78.772638,NO2,20,25,25
India,Uttar_Pradesh,Moradabad,"Jigar Colony, Moradabad - UPPCB","29-03-2025 16:00:00",28.856664,78.772638,SO2,17,72,37
India,Uttarakhand,Dehradun,"Doon University, Dehradun - UKPCB","29-03-2025 16:00:00",30.269444,78.044167,PM2.5,1,70,54
India,Uttarakhand,Kashipur,"Govt. Girls Inter College, Kashipur - UKPCB","29-03-2025 16:00:00",29.2124114,78.9611753,NO2,18,42,29
India,Uttarakhand,Kashipur,"Govt. Girls Inter College, Kashipur - UKPCB","29-03-2025 16:00:00",29.2124114,78.9611753,CO,13,42,29
India,West_Bengal,Asansol,"Asansol Court Area, Asansol - WBPCB","29-03-2025 16:00:00",23.685297,86.945968,NH3,3,7,5
India,West_Bengal,Asansol,"Asansol Court Area, Asansol - WBPCB","29-03-2025 16:00:00",23.685297,86.945968,SO2,6,53,23
India,West_Bengal,Asansol,"Mahabir Colliery, Asansol - WBPCB","29-03-2025 16:00:00",23.6181830,87.1057180,SO2,14,56,35
India,Uttar_Pradesh,Noida,"Sector-116, Noida - UPPCB","29-03-2025 16:00:00",28.569230,77.393848,NO2,NA,NA,NA
India,Uttar_Pradesh,Noida,"Sector-116, Noida - UPPCB","29-03-2025 16:00:00",28.569230,77.393848,SO2,31,66,47
India,Uttar_Pradesh,Prayagraj,"Jhunsi, Prayagraj - UPPCB","29-03-2025 16:00:00",25.425602,81.917152,SO2,30,31,31
India,Uttar_Pradesh,Moradabad,"Jigar Colony, Moradabad - UPPCB","29-03-2025 16:00:00",28.856664,78.772638,OZONE,17,29,19
India,Uttar_Pradesh,Moradabad,"Kashiram Nagar, Moradabad - UPPCB","29-03-2025 16:00:00",28.849399,78.742362,OZONE,14,149,33
India,Uttar_Pradesh,Noida,"Sector - 62, Noida - IMD","29-03-2025 16:00:00",28.6245479,77.3577104,PM10,NA,NA,NA
India,Uttar_Pradesh,Noida,"Sector - 62, Noida - IMD","29-03-2025 16:00:00",28.6245479,77.3577104,NO2,NA,NA,NA
India,Uttarakhand,Rishikesh,"Shivaji Nagar, Rishikesh - UKPCB","29-03-2025 16:00:00",30.075911,78.2859547,PM2.5,25,94,50
India,Uttar_Pradesh,Noida,"Sector - 125, Noida - UPPCB","29-03-2025 16:00:00",28.5447608,77.3231257,PM2.5,14,37,21
India,West_Bengal,Asansol,"Trivenidevi Bhalotia College, Asansol - WBPCB","29-03-2025 16:00:00",23.616515,87.119133,SO2,12,41,24
India,West_Bengal,Asansol,"Trivenidevi Bhalotia College, Asansol - WBPCB","29-03-2025 16:00:00",23.616515,87.119133,CO,103,121,108
India,West_Bengal,Durgapur,"Mahishkapur Road_B-Zone, Durgapur - WBPCB","29-03-2025 16:00:00",23.567923,87.306843,PM2.5,44,152,92
India,West_Bengal,Durgapur,"Mahishkapur Road_B-Zone, Durgapur - WBPCB","29-03-2025 16:00:00",23.567923,87.306843,NH3,1,3,2
India,West_Bengal,Durgapur,"Mahishkapur Road_B-Zone, Durgapur - WBPCB","29-03-2025 16:00:00",23.567923,87.306843,SO2,10,46,17
India,West_Bengal,Durgapur,"Mahishkapur Road_B-Zone, Durgapur - WBPCB","29-03-2025 16:00:00",23.567923,87.306843,OZONE,4,92,66
India,West_Bengal,Durgapur,"PCBL Residential Complex, Durgapur - WBPCB","29-03-2025 16:00:00",23.5087640,87.3544400,SO2,13,109,60
India,West_Bengal,Haldia,"Priyambada Housing Estate, Haldia - WBPCB","29-03-2025 16:00:00",22.06047,88.109737,NO2,12,31,19
India,West_Bengal,Haldia,"Priyambada Housing Estate, Haldia - WBPCB","29-03-2025 16:00:00",22.06047,88.109737,SO2,7,26,17
India,West_Bengal,Howrah,"Belur Math, Howrah - WBPCB","29-03-2025 16:00:00",22.629801,88.352017,PM10,105,156,128
India,West_Bengal,Howrah,"Botanical Garden, Howrah - WBPCB","29-03-2025 16:00:00",22.554954,88.292568,PM2.5,54,125,80
India,West_Bengal,Howrah,"Botanical Garden, Howrah - WBPCB","29-03-2025 16:00:00",22.554954,88.292568,CO,21,107,72
India,West_Bengal,Howrah,"Padmapukur, Howrah - WBPCB","29-03-2025 16:00:00",22.5687319,88.2797276,PM2.5,88,155,123
India,West_Bengal,Howrah,"Padmapukur, Howrah - WBPCB","29-03-2025 16:00:00",22.5687319,88.2797276,SO2,6,107,28
India,West_Bengal,Kolkata,"Ballygunge, Kolkata - WBPCB","29-03-2025 16:00:00",22.5367507,88.3638022,NH3,7,11,9
India,West_Bengal,Kolkata,"Bidhannagar, Kolkata - WBPCB","29-03-2025 16:00:00",22.58157048,88.41002457,PM2.5,59,106,78
India,West_Bengal,Kolkata,"Jadavpur, Kolkata - WBPCB","29-03-2025 16:00:00",22.49929,88.36917,PM2.5,58,355,166
India,West_Bengal,Kolkata,"Jadavpur, Kolkata - WBPCB","29-03-2025 16:00:00",22.49929,88.36917,NH3,5,7,6
India,West_Bengal,Kolkata,"Jadavpur, Kolkata - WBPCB","29-03-2025 16:00:00",22.49929,88.36917,CO,20,42,32
India,West_Bengal,Kolkata,"Rabindra Bharati University, Kolkata - WBPCB","29-03-2025 16:00:00",22.627847,88.380669,PM2.5,77,180,105
India,West_Bengal,Kolkata,"Rabindra Sarobar, Kolkata - WBPCB","29-03-2025 16:00:00",22.51106,88.35142,PM2.5,52,92,71
India,West_Bengal,Kolkata,"Rabindra Sarobar, Kolkata - WBPCB","29-03-2025 16:00:00",22.51106,88.35142,NH3,4,9,6
India,West_Bengal,Kolkata,"Rabindra Sarobar, Kolkata - WBPCB","29-03-2025 16:00:00",22.51106,88.35142,CO,2,38,18
India,West_Bengal,Kolkata,"Rabindra Sarobar, Kolkata - WBPCB","29-03-2025 16:00:00",22.51106,88.35142,OZONE,11,168,154
India,West_Bengal,Kolkata,"Victoria, Kolkata - WBPCB","29-03-2025 16:00:00",22.5448082,88.3403691,PM2.5,83,201,134
India,West_Bengal,Kolkata,"Victoria, Kolkata - WBPCB","29-03-2025 16:00:00",22.5448082,88.3403691,NO2,29,39,32
India,West_Bengal,Kolkata,"Victoria, Kolkata - WBPCB","29-03-2025 16:00:00",22.5448082,88.3403691,SO2,5,11,8
India,West_Bengal,Siliguri,"Ward-32 Bapupara, Siliguri - WBPCB","29-03-2025 16:00:00",26.6879226,88.4152495,PM2.5,123,218,161
India,West_Bengal,Siliguri,"Ward-32 Bapupara, Siliguri - WBPCB","29-03-2025 16:00:00",26.6879226,88.4152495,OZONE,15,18,16
India,Andhra_Pradesh,Anantapur,"Gulzarpet, Anantapur - APPCB","29-03-2025 16:00:00",14.675886,77.593027,CO,8,18,11
India,Andhra_Pradesh,Chittoor,"Gangineni Cheruvu, Chittoor - APPCB","29-03-2025 16:00:00",13.204880,79.097889,CO,8,22,17
India,Andhra_Pradesh,Kadapa,"Yerramukkapalli, Kadapa - APPCB","29-03-2025 16:00:00",14.465052,78.824187,PM10,27,143,81
India,Andhra_Pradesh,Kadapa,"Yerramukkapalli, Kadapa - APPCB","29-03-2025 16:00:00",14.465052,78.824187,NO2,16,43,26
India,Andhra_Pradesh,Rajamahendravaram,"Anand Kala Kshetram, Rajamahendravaram - APPCB","29-03-2025 16:00:00",16.9872867,81.7363176,SO2,11,14,12
India,Andhra_Pradesh,Rajamahendravaram,"Anand Kala Kshetram, Rajamahendravaram - APPCB","29-03-2025 16:00:00",16.9872867,81.7363176,CO,3,59,32
India,Andhra_Pradesh,Tirumala,"Toll Gate, Tirumala - APPCB (Formerly known as Tirumala, Tirupati - APPCB)","29-03-2025 16:00:00",13.67,79.35,PM2.5,79,131,101
India,Andhra_Pradesh,Tirumala,"Toll Gate, Tirumala - APPCB (Formerly known as Tirumala, Tirupati - APPCB)","29-03-2025 16:00:00",13.67,79.35,PM10,71,135,93
India,Bihar,Begusarai,"Lohiyanagar, Begusarai - BSPCB","29-03-2025 16:00:00",25.42742023,86.13886079,OZONE,1,25,17
India,Bihar,Bettiah,"Kamalnath Nagar, Bettiah - BSPCB","29-03-2025 16:00:00",26.80365,84.51954,SO2,11,21,16
India,Bihar,Bettiah,"Kamalnath Nagar, Bettiah - BSPCB","29-03-2025 16:00:00",26.80365,84.51954,OZONE,23,28,27
India,Bihar,Bhagalpur,"DM Office_Kachari Chowk, Bhagalpur - BSPCB","29-03-2025 16:00:00",25.251013,86.989001,PM2.5,32,95,51
India,Bihar,Bhagalpur,"DM Office_Kachari Chowk, Bhagalpur - BSPCB","29-03-2025 16:00:00",25.251013,86.989001,NH3,1,2,2
India,Bihar,Bhagalpur,"DM Office_Kachari Chowk, Bhagalpur - BSPCB","29-03-2025 16:00:00",25.251013,86.989001,OZONE,18,20,19
India,Bihar,Bhagalpur,"Mayaganj, Bhagalpur - BSPCB","29-03-2025 16:00:00",25.265194,87.012947,PM10,79,285,144
India,Bihar,"Bihar Sharif","D M Colony, Bihar Sharif - BSPCB","29-03-2025 16:00:00",25.204762,85.514960,NO2,9,10,9
India,Andhra_Pradesh,Vijayawada,"Rajiv Gandhi Park, Vijayawada - APPCB","29-03-2025 16:00:00",16.509717,80.612222,CO,38,41,39
India,Andhra_Pradesh,Vijayawada,"Rajiv Gandhi Park, Vijayawada - APPCB","29-03-2025 16:00:00",16.509717,80.612222,OZONE,10,46,22
India,Andhra_Pradesh,Vijayawada,"Rajiv Nagar, Vijayawada - APPCB","29-03-2025 16:00:00",16.554731,80.649110,NO2,15,22,17
India,Andhra_Pradesh,Vijayawada,"Rajiv Nagar, Vijayawada - APPCB","29-03-2025 16:00:00",16.554731,80.649110,SO2,13,26,19
India,Arunachal_Pradesh,Naharlagun,"Naharlagun, Naharlagun - APSPCB","29-03-2025 16:00:00",27.103358,93.679645,OZONE,4,4,4
India,Assam,Byrnihat,"Central Academy for SFS, Byrnihat - PCBA","29-03-2025 16:00:00",26.071318,91.87488,PM2.5,78,395,215
India,"Andaman and Nicobar","Sri Vijaya Puram","Police Line, Sri Vijaya Puram - ANPCC","29-03-2025 16:00:00",11.654054,92.734055,PM2.5,10,61,31
India,"Andaman and Nicobar","Sri Vijaya Puram","Police Line, Sri Vijaya Puram - ANPCC","29-03-2025 16:00:00",11.654054,92.734055,NH3,1,3,2
India,"Andaman and Nicobar","Sri Vijaya Puram","Police Line, Sri Vijaya Puram - ANPCC","29-03-2025 16:00:00",11.654054,92.734055,OZONE,3,65,20
India,Andhra_Pradesh,Amaravati,"Secretariat, Amaravati - APPCB","29-03-2025 16:00:00",16.5150833,80.5181667,PM10,67,121,94
India,Andhra_Pradesh,Amaravati,"Secretariat, Amaravati - APPCB","29-03-2025 16:00:00",16.5150833,80.5181667,OZONE,4,102,56
India,Andhra_Pradesh,Anantapur,"Gulzarpet, Anantapur - APPCB","29-03-2025 16:00:00",14.675886,77.593027,PM2.5,37,73,64
India,Assam,Guwahati,"IITG, Guwahati - PCBA","29-03-2025 16:00:00",26.2028636,91.70046436,PM2.5,85,247,131
India,Assam,Guwahati,"IITG, Guwahati - PCBA","29-03-2025 16:00:00",26.2028636,91.70046436,PM10,108,191,144
India,Assam,Guwahati,"IITG, Guwahati - PCBA","29-03-2025 16:00:00",26.2028636,91.70046436,CO,14,25,15
India,Assam,Guwahati,"IITG, Guwahati - PCBA","29-03-2025 16:00:00",26.2028636,91.70046436,OZONE,3,25,18
India,Assam,Guwahati,"LGBI Airport, Guwahati - PCBA","29-03-2025 16:00:00",26.10887,91.589544,PM2.5,97,318,220
India,Assam,Guwahati,"LGBI Airport, Guwahati - PCBA","29-03-2025 16:00:00",26.10887,91.589544,PM10,62,264,187
India,Bihar,Arrah,"New DM Office, Arrah - BSPCB","29-03-2025 16:00:00",25.5626095,84.663264,CO,14,28,20
India,Bihar,Aurangabad,"Gurdeo Nagar, Aurangabad - BSPCB","29-03-2025 16:00:00",24.75746,84.366208,CO,24,35,32
India,Bihar,Aurangabad,"Gurdeo Nagar, Aurangabad - BSPCB","29-03-2025 16:00:00",24.75746,84.366208,OZONE,33,79,66
India,Bihar,Begusarai,"Lohiyanagar, Begusarai - BSPCB","29-03-2025 16:00:00",25.42742023,86.13886079,PM10,2,157,87
India,Assam,Silchar,"Tarapur, Silchar - PCBA","29-03-2025 16:00:00",24.82827,92.79525,PM2.5,43,79,62
India,Assam,Silchar,"Tarapur, Silchar - PCBA","29-03-2025 16:00:00",24.82827,92.79525,PM10,51,67,59
India,Bihar,Arrah,"New DM Office, Arrah - BSPCB","29-03-2025 16:00:00",25.5626095,84.663264,PM2.5,NA,NA,NA
India,Assam,Guwahati,"Pan Bazaar, Guwahati - PCBA","29-03-2025 16:00:00",26.187500,91.744194,OZONE,17,18,17
India,Assam,Nagaon,"Christianpatty, Nagaon - PCBA","29-03-2025 16:00:00",26.349082,92.68449,NH3,3,4,4
India,Andhra_Pradesh,Vijayawada,"Kanuru, Vijayawada - APPCB","29-03-2025 16:00:00",16.486692,80.699436,PM2.5,64,117,88
India,Andhra_Pradesh,Vijayawada,"Kanuru, Vijayawada - APPCB","29-03-2025 16:00:00",16.486692,80.699436,CO,16,24,17
India,Bihar,Purnia,"Mariam Nagar, Purnia - BSPCB","29-03-2025 16:00:00",25.366336,87.117468,CO,38,94,56
India,Bihar,Rajgir,"Dangi Tola, Rajgir - BSPCB","29-03-2025 16:00:00",25.03280,85.41948,PM10,NA,NA,NA
India,Bihar,Rajgir,"Dangi Tola, Rajgir - BSPCB","29-03-2025 16:00:00",25.03280,85.41948,CO,14,46,21
India,Bihar,Saharsa,"Police Line, Saharsa - BSPCB","29-03-2025 16:00:00",25.892357,86.590325,PM10,60,239,116
India,Bihar,Saharsa,"Police Line, Saharsa - BSPCB","29-03-2025 16:00:00",25.892357,86.590325,CO,3,91,15
India,Bihar,Samastipur,"DM Office_Kasipur, Samastipur - BSPCB","29-03-2025 16:00:00",25.859655,85.77944,PM2.5,3,173,68
India,Bihar,Manguraha,"Forest Rest House, Manguraha - BSPCB","29-03-2025 16:00:00",27.308328,84.531742,NH3,1,2,1
India,Bihar,Manguraha,"Forest Rest House, Manguraha - BSPCB","29-03-2025 16:00:00",27.308328,84.531742,CO,20,172,163
India,Bihar,Motihari,"Gandak Colony, Motihari - BSPCB","29-03-2025 16:00:00",26.63086,84.90051,PM2.5,12,47,24
India,Bihar,Motihari,"Gandak Colony, Motihari - BSPCB","29-03-2025 16:00:00",26.63086,84.90051,PM10,26,165,59
India,Bihar,Munger,"Town Hall, Munger - BSPCB","29-03-2025 16:00:00",25.376776,86.471523,PM10,80,237,135
India,Bihar,Chhapra,"Darshan Nagar, Chhapra - BSPCB","29-03-2025 16:00:00",25.7808257,84.7446768,NH3,3,11,7
India,Bihar,Chhapra,"Darshan Nagar, Chhapra - BSPCB","29-03-2025 16:00:00",25.7808257,84.7446768,OZONE,7,129,93
India,Bihar,Gaya,"Collectorate, Gaya - BSPCB","29-03-2025 16:00:00",24.7955,84.9994,OZONE,20,21,20
India,Bihar,Gaya,"Kareemganj, Gaya - BSPCB","29-03-2025 16:00:00",24.792403,84.992416,PM10,111,220,140
India,Bihar,Gaya,"Kareemganj, Gaya - BSPCB","29-03-2025 16:00:00",24.792403,84.992416,CO,16,43,23
India,Bihar,Hajipur,"Industrial Area, Hajipur - BSPCB","29-03-2025 16:00:00",25.697189,85.245900,PM2.5,96,311,211
India,Bihar,Hajipur,"Industrial Area, Hajipur - BSPCB","29-03-2025 16:00:00",25.697189,85.245900,OZONE,29,111,89
India,Bihar,Katihar,"Mirchaibari, Katihar - BSPCB","29-03-2025 16:00:00",25.560083,87.553265,PM2.5,30,97,64
India,Bihar,Patna,"Muradpur, Patna - BSPCB","29-03-2025 16:00:00",25.619651,85.147382,CO,29,60,45
India,Bihar,Patna,"Muradpur, Patna - BSPCB","29-03-2025 16:00:00",25.619651,85.147382,OZONE,6,40,29
India,Bihar,Patna,"Rajbansi Nagar, Patna - BSPCB","29-03-2025 16:00:00",25.599486,85.113666,PM2.5,62,167,90
India,Bihar,Patna,"Samanpura, Patna - BSPCB","29-03-2025 16:00:00",25.596727,85.085624,PM2.5,55,148,88
India,Bihar,Muzaffarpur,"MIT-Daudpur Kothi, Muzaffarpur - BSPCB","29-03-2025 16:00:00",26.1403345,85.3650192,NH3,2,3,3
India,Bihar,Muzaffarpur,"MIT-Daudpur Kothi, Muzaffarpur - BSPCB","29-03-2025 16:00:00",26.1403345,85.3650192,CO,58,126,70
India,Bihar,Patna,"DRM Office Danapur, Patna - BSPCB","29-03-2025 16:00:00",25.586562,85.043586,SO2,3,6,4
India,Bihar,"Bihar Sharif","D M Colony, Bihar Sharif - BSPCB","29-03-2025 16:00:00",25.204762,85.514960,SO2,7,10,9
India,Bihar,Buxar,"Charitra Van, Buxar - BSPCB","29-03-2025 16:00:00",25.567520,83.966379,CO,8,104,88
India,Bihar,Buxar,"Charitra Van, Buxar - BSPCB","29-03-2025 16:00:00",25.567520,83.966379,OZONE,67,116,97
India,Bihar,Patna,"Govt. High School Shikarpur, Patna - BSPCB","29-03-2025 16:00:00",25.592539,85.227158,NO2,5,20,9
India,Bihar,Patna,"Govt. High School Shikarpur, Patna - BSPCB","29-03-2025 16:00:00",25.592539,85.227158,SO2,4,9,7
India,Bihar,Patna,"Muradpur, Patna - BSPCB","29-03-2025 16:00:00",25.619651,85.147382,PM10,154,500,263
India,Bihar,Katihar,"Mirchaibari, Katihar - BSPCB","29-03-2025 16:00:00",25.560083,87.553265,SO2,16,23,19
India,Bihar,Manguraha,"Forest Rest House, Manguraha - BSPCB","29-03-2025 16:00:00",27.308328,84.531742,PM2.5,40,326,159
India,Bihar,Samastipur,"DM Office_Kasipur, Samastipur - BSPCB","29-03-2025 16:00:00",25.859655,85.77944,OZONE,6,8,6
India,Bihar,Sasaram,"Dada Peer, Sasaram - BSPCB","29-03-2025 16:00:00",24.952822,84.002396,PM2.5,120,328,226
India,Bihar,Sasaram,"Dada Peer, Sasaram - BSPCB","29-03-2025 16:00:00",24.952822,84.002396,PM10,85,168,119
India,Chandigarh,Chandigarh,"Sector 22, Chandigarh - CPCC","29-03-2025 16:00:00",30.735567,76.775714,PM2.5,15,58,39
India,Chandigarh,Chandigarh,"Sector 22, Chandigarh - CPCC","29-03-2025 16:00:00",30.735567,76.775714,PM10,54,97,77
India,Chandigarh,Chandigarh,"Sector 22, Chandigarh - CPCC","29-03-2025 16:00:00",30.735567,76.775714,NH3,8,14,11
India,Chandigarh,Chandigarh,"Sector 22, Chandigarh - CPCC","29-03-2025 16:00:00",30.735567,76.775714,SO2,10,26,19
India,Chandigarh,Chandigarh,"Sector-25, Chandigarh - CPCC","29-03-2025 16:00:00",30.751462,76.762879,SO2,2,7,5
India,Chandigarh,Chandigarh,"Sector-53, Chandigarh - CPCC","29-03-2025 16:00:00",30.719859,76.738637,PM10,67,131,94
India,Delhi,Delhi,"Alipur, Delhi - DPCC","29-03-2025 16:00:00",28.815329,77.153010,NO2,12,24,18
India,Delhi,Delhi,"Alipur, Delhi - DPCC","29-03-2025 16:00:00",28.815329,77.153010,SO2,14,28,21
India,Delhi,Delhi,"Ashok Vihar, Delhi - DPCC","29-03-2025 16:00:00",28.695381,77.181665,PM10,107,408,206
India,Delhi,Delhi,"Ashok Vihar, Delhi - DPCC","29-03-2025 16:00:00",28.695381,77.181665,OZONE,56,115,83
India,Delhi,Delhi,"Aya Nagar, Delhi - IMD","29-03-2025 16:00:00",28.4706914,77.1099364,PM2.5,11,92,51
India,Delhi,Delhi,"Aya Nagar, Delhi - IMD","29-03-2025 16:00:00",28.4706914,77.1099364,OZONE,68,138,103
India,Delhi,Delhi,"Bawana, Delhi - DPCC","29-03-2025 16:00:00",28.776200,77.051074,PM2.5,47,290,106
India,Chhattisgarh,Korba,"Urja Nagar, Korba - CECB","29-03-2025 16:00:00",22.348441,82.549611,PM10,71,390,125
India,Chhattisgarh,Korba,"Urja Nagar, Korba - CECB","29-03-2025 16:00:00",22.348441,82.549611,CO,17,103,30
India,Chhattisgarh,Kunjemura,"OP Jindal School, Kunjemura - CECB","29-03-2025 16:00:00",22.126650,83.483212,NO2,27,56,41
India,Chhattisgarh,Milupara,"Govt. Higher Secondary School, Milupara - CECB","29-03-2025 16:00:00",22.1910172,83.5197009,NH3,1,3,1
India,Chhattisgarh,Milupara,"Govt. Higher Secondary School, Milupara - CECB","29-03-2025 16:00:00",22.1910172,83.5197009,SO2,10,23,14
India,Delhi,Delhi,"Bawana, Delhi - DPCC","29-03-2025 16:00:00",28.776200,77.051074,NO2,4,18,9
India,Delhi,Delhi,"Burari Crossing, Delhi - IMD","29-03-2025 16:00:00",28.7256504,77.2011573,PM10,87,203,144
India,Delhi,Delhi,"Chandni Chowk, Delhi - IITM","29-03-2025 16:00:00",28.656756,77.227234,SO2,12,25,20
India,Delhi,Delhi,"DTU, Delhi - CPCB","29-03-2025 16:00:00",28.7500499,77.1112615,PM2.5,8,98,55
India,Delhi,Delhi,"DTU, Delhi - CPCB","29-03-2025 16:00:00",28.7500499,77.1112615,PM10,111,213,149
India,Delhi,Delhi,"ITO, Delhi - CPCB","29-03-2025 16:00:00",28.628624,77.241060,SO2,4,27,17
India,Delhi,Delhi,"Jahangirpuri, Delhi - DPCC","29-03-2025 16:00:00",28.732820,77.170633,CO,34,70,52
India,Delhi,Delhi,"Jawaharlal Nehru Stadium, Delhi - DPCC","29-03-2025 16:00:00",28.580280,77.233829,OZONE,43,92,72
India,Delhi,Delhi,"Lodhi Road, Delhi - IITM","29-03-2025 16:00:00",28.588333,77.221667,PM2.5,57,128,89
India,Chandigarh,Chandigarh,"Sector-53, Chandigarh - CPCC","29-03-2025 16:00:00",30.719859,76.738637,NO2,39,60,46
India,Chhattisgarh,Bhilai,"32Bungalows, Bhilai - CECB","29-03-2025 16:00:00",21.194815,81.314770,PM2.5,46,81,59
India,Chhattisgarh,Bhilai,"32Bungalows, Bhilai - CECB","29-03-2025 16:00:00",21.194815,81.314770,PM10,49,117,83
India,Chhattisgarh,Bhilai,"32Bungalows, Bhilai - CECB","29-03-2025 16:00:00",21.194815,81.314770,NH3,1,3,1
India,Delhi,Delhi,"IHBAS, Dilshad Garden, Delhi - CPCB","29-03-2025 16:00:00",28.6811736,77.3025234,NH3,9,10,10
India,Delhi,Delhi,"ITO, Delhi - CPCB","29-03-2025 16:00:00",28.628624,77.241060,PM2.5,44,127,64
India,Delhi,Delhi,"ITO, Delhi - CPCB","29-03-2025 16:00:00",28.628624,77.241060,NO2,11,53,24
India,Chhattisgarh,Raipur,"AIIMS, Raipur - CECB","29-03-2025 16:00:00",21.258815,81.578979,SO2,10,54,22
India,Chhattisgarh,Raipur,"Bhatagaon New ISBT, Raipur - CECB","29-03-2025 16:00:00",21.219665,81.630094,PM2.5,NA,NA,NA
India,Chhattisgarh,Bhilai,"32Bungalows, Bhilai - CECB","29-03-2025 16:00:00",21.194815,81.314770,CO,15,102,22
India,Delhi,Delhi,"Pusa, Delhi - DPCC","29-03-2025 16:00:00",28.639652,77.146275,PM10,79,232,145
India,Delhi,Delhi,"Pusa, Delhi - DPCC","29-03-2025 16:00:00",28.639652,77.146275,SO2,18,34,25
India,Delhi,Delhi,"Pusa, Delhi - DPCC","29-03-2025 16:00:00",28.639652,77.146275,OZONE,14,37,23
India,Delhi,Delhi,"Pusa, Delhi - IMD","29-03-2025 16:00:00",28.636110,77.173332,PM2.5,5,93,43
India,Delhi,Delhi,"Pusa, Delhi - IMD","29-03-2025 16:00:00",28.636110,77.173332,NO2,24,33,28
India,Delhi,Delhi,"R K Puram, Delhi - DPCC","29-03-2025 16:00:00",28.563262,77.186937,PM10,75,280,158
India,Delhi,Delhi,"Rohini, Delhi - DPCC","29-03-2025 16:00:00",28.732528,77.119920,PM10,116,189,150
India,Delhi,Delhi,"Patparganj, Delhi - DPCC","29-03-2025 16:00:00",28.623763,77.287209,NO2,30,67,40
India,Delhi,Delhi,"Patparganj, Delhi - DPCC","29-03-2025 16:00:00",28.623763,77.287209,NH3,6,9,8
India,Delhi,Delhi,"Punjabi Bagh, Delhi - DPCC","29-03-2025 16:00:00",28.674045,77.131023,PM10,94,204,139
India,Delhi,Delhi,"Punjabi Bagh, Delhi - DPCC","29-03-2025 16:00:00",28.674045,77.131023,SO2,19,32,28
India,Delhi,Delhi,"Punjabi Bagh, Delhi - DPCC","29-03-2025 16:00:00",28.674045,77.131023,CO,2,38,29
India,Delhi,Delhi,"Punjabi Bagh, Delhi - DPCC","29-03-2025 16:00:00",28.674045,77.131023,OZONE,28,62,44
India,Delhi,Delhi,"NSIT Dwarka, Delhi - CPCB","29-03-2025 16:00:00",28.60909,77.0325413,NO2,46,49,48
India,Delhi,Delhi,"NSIT Dwarka, Delhi - CPCB","29-03-2025 16:00:00",28.60909,77.0325413,SO2,2,12,8
India,Delhi,Delhi,"NSIT Dwarka, Delhi - CPCB","29-03-2025 16:00:00",28.60909,77.0325413,CO,12,42,16
India,Delhi,Delhi,"Najafgarh, Delhi - DPCC","29-03-2025 16:00:00",28.570173,76.933762,PM10,111,153,133
India,Delhi,Delhi,"Najafgarh, Delhi - DPCC","29-03-2025 16:00:00",28.570173,76.933762,NO2,34,70,61
India,Delhi,Delhi,"Major Dhyan Chand National Stadium, Delhi - DPCC","29-03-2025 16:00:00",28.611281,77.237738,SO2,12,23,17
India,Delhi,Delhi,"Major Dhyan Chand National Stadium, Delhi - DPCC","29-03-2025 16:00:00",28.611281,77.237738,CO,21,36,31
India,Delhi,Delhi,"Mandir Marg, Delhi - DPCC","29-03-2025 16:00:00",28.636429,77.201067,PM10,57,160,102
India,Delhi,Delhi,"Mandir Marg, Delhi - DPCC","29-03-2025 16:00:00",28.636429,77.201067,NH3,8,21,11
India,Delhi,Delhi,"Narela, Delhi - DPCC","29-03-2025 16:00:00",28.822836,77.101981,CO,25,40,32
India,Delhi,Delhi,"Narela, Delhi - DPCC","29-03-2025 16:00:00",28.822836,77.101981,OZONE,16,49,29
India,Delhi,Delhi,"North Campus, DU, Delhi - IMD","29-03-2025 16:00:00",28.6573814,77.1585447,PM2.5,35,258,70
India,Delhi,Delhi,"Sri Aurobindo Marg, Delhi - DPCC","29-03-2025 16:00:00",28.531346,77.190156,PM2.5,35,195,69
India,Delhi,Delhi,"Sri Aurobindo Marg, Delhi - DPCC","29-03-2025 16:00:00",28.531346,77.190156,NO2,13,65,27
India,Delhi,Delhi,"Vivek Vihar, Delhi - DPCC","29-03-2025 16:00:00",28.672342,77.315260,PM2.5,28,107,57
India,Delhi,Delhi,"Mundka, Delhi - DPCC","29-03-2025 16:00:00",28.684678,77.076574,PM2.5,45,230,87
India,Delhi,Delhi,"Mundka, Delhi - DPCC","29-03-2025 16:00:00",28.684678,77.076574,PM10,116,439,231
India,Delhi,Delhi,"Mundka, Delhi - DPCC","29-03-2025 16:00:00",28.684678,77.076574,NH3,5,7,6
India,Delhi,Delhi,"Lodhi Road, Delhi - IITM","29-03-2025 16:00:00",28.588333,77.221667,SO2,19,50,30
India,Delhi,Delhi,"Shadipur, Delhi - CPCB","29-03-2025 16:00:00",28.6514781,77.1473105,NH3,8,9,8
India,Haryana,"Charkhi Dadri","Mini Secretariat, Charkhi Dadri - HSPCB","29-03-2025 16:00:00",28.593883,76.270653,NO2,14,24,17
India,Haryana,"Charkhi Dadri","Mini Secretariat, Charkhi Dadri - HSPCB","29-03-2025 16:00:00",28.593883,76.270653,NH3,6,8,7
India,Haryana,Faridabad,"New Industrial Town, Faridabad - HSPCB","29-03-2025 16:00:00",28.39072,77.30059,CO,11,14,12
India,Haryana,Faridabad,"New Industrial Town, Faridabad - HSPCB","29-03-2025 16:00:00",28.39072,77.30059,OZONE,42,49,45
India,Haryana,Faridabad,"Sector 11, Faridabad - HSPCB","29-03-2025 16:00:00",28.376058,77.315741,SO2,8,9,8
India,Haryana,Faridabad,"Sector 11, Faridabad - HSPCB","29-03-2025 16:00:00",28.376058,77.315741,OZONE,19,21,20
India,Haryana,Gurugram,"NISE Gwal Pahari, Gurugram - IMD","29-03-2025 16:00:00",28.422681,77.148944,PM10,78,160,118
India,Haryana,Gurugram,"Sector-51, Gurugram - HSPCB","29-03-2025 16:00:00",28.4227,77.0667,CO,10,37,28
India,Haryana,Gurugram,"Teri Gram, Gurugram - HSPCB","29-03-2025 16:00:00",28.4275,77.1465,PM2.5,107,262,190
India,Haryana,Gurugram,"Teri Gram, Gurugram - HSPCB","29-03-2025 16:00:00",28.4275,77.1465,NH3,8,27,22
India,Gujarat,Gandhinagar,"Sector-10, Gandhinagar - GPCB","29-03-2025 16:00:00",23.221714,72.654328,PM10,52,139,88
India,Gujarat,Gandhinagar,"Sector-10, Gandhinagar - GPCB","29-03-2025 16:00:00",23.221714,72.654328,NO2,22,25,24
India,Gujarat,Nandesari,"GIDC, Nandesari - Nandesari Ind. Association","29-03-2025 16:00:00",22.410802,73.097923,PM10,1,1,1
India,Gujarat,Surat,"Science Center, Surat - SMC","29-03-2025 16:00:00",21.170046,72.795405,PM2.5,5,130,34
India,Gujarat,Surat,"Science Center, Surat - SMC","29-03-2025 16:00:00",21.170046,72.795405,NO2,12,23,16
India,Gujarat,Surat,"Science Center, Surat - SMC","29-03-2025 16:00:00",21.170046,72.795405,SO2,44,67,50
India,Gujarat,Surat,"Science Center, Surat - SMC","29-03-2025 16:00:00",21.170046,72.795405,CO,37,86,60
India,Gujarat,Vapi,"Phase-1 GIDC, Vapi - GPCB","29-03-2025 16:00:00",20.362421,72.918013,OZONE,2,2,2
India,Gujarat,Vatva,"Phase-4 GIDC, Vatva - GPCB","29-03-2025 16:00:00",22.969611,72.643500,SO2,10,24,16
India,Gujarat,Ahmedabad,"SVPI Airport Hansol, Ahmedabad - IITM","29-03-2025 16:00:00",23.076793,72.627874,PM2.5,75,315,145
India,Gujarat,Ahmedabad,"Sardar Vallabhbhai Patel Stadium, Ahmedabad - IITM","29-03-2025 16:00:00",23.043070,72.562968,NO2,7,57,23
India,Gujarat,Ahmedabad,"Sardar Vallabhbhai Patel Stadium, Ahmedabad - IITM","29-03-2025 16:00:00",23.043070,72.562968,OZONE,12,31,22
India,Gujarat,Ankleshwar,"GIDC, Ankleshwar - GPCB","29-03-2025 16:00:00",21.613267,73.010555,PM10,78,109,92
India,Gujarat,Gandhinagar,"IIPHG Lekawada, Gandhinagar - IITM","29-03-2025 16:00:00",23.243639,72.68994,NO2,21,108,59
India,Gujarat,Gandhinagar,"IIPHG Lekawada, Gandhinagar - IITM","29-03-2025 16:00:00",23.243639,72.68994,NH3,2,15,5
India,Karnataka,Bengaluru,"BTM Layout, Bengaluru - CPCB","29-03-2025 16:00:00",12.9135218,77.5950804,PM10,79,286,114
India,Karnataka,Bengaluru,"Bapuji Nagar, Bengaluru - KSPCB","29-03-2025 16:00:00",12.951913,77.539784,PM2.5,58,178,81
India,Karnataka,Bengaluru,"Hebbal, Bengaluru - KSPCB","29-03-2025 16:00:00",13.029152,77.585901,PM10,79,146,100
India,Karnataka,Bengaluru,"Hebbal, Bengaluru - KSPCB","29-03-2025 16:00:00",13.029152,77.585901,SO2,10,16,13
India,Karnataka,Bengaluru,"Hebbal, Bengaluru - KSPCB","29-03-2025 16:00:00",13.029152,77.585901,OZONE,8,109,52
India,Karnataka,Bengaluru,"Hombegowda Nagar, Bengaluru - KSPCB","29-03-2025 16:00:00",12.938539,77.590100,CO,17,52,24
India,Gujarat,Ahmedabad,"Maninagar, Ahmedabad - GPCB","29-03-2025 16:00:00",23.002657,72.591912,PM2.5,16,61,36
India,Gujarat,Ahmedabad,"Maninagar, Ahmedabad - GPCB","29-03-2025 16:00:00",23.002657,72.591912,PM10,71,131,100
India,Gujarat,Ahmedabad,"Maninagar, Ahmedabad - GPCB","29-03-2025 16:00:00",23.002657,72.591912,NO2,29,31,30
India,Gujarat,Ahmedabad,"Raikhad, Ahmedabad - IITM","29-03-2025 16:00:00",23.020509,72.579261,NH3,2,5,4
India,Gujarat,Ahmedabad,"Raikhad, Ahmedabad - IITM","29-03-2025 16:00:00",23.020509,72.579261,CO,29,90,41
India,Gujarat,Ahmedabad,"Raikhad, Ahmedabad - IITM","29-03-2025 16:00:00",23.020509,72.579261,OZONE,25,134,86
India,Gujarat,Ahmedabad,"Rakhial, Ahmedabad - IITM","29-03-2025 16:00:00",23.016834,72.625775,CO,39,109,64
India,Karnataka,Bengaluru,"Shivapura_Peenya, Bengaluru - KSPCB","29-03-2025 16:00:00",13.0246342,77.5080115,OZONE,23,25,24
India,Karnataka,Bengaluru,"Silk Board, Bengaluru - KSPCB","29-03-2025 16:00:00",12.917348,77.622813,SO2,NA,NA,NA
India,Karnataka,Bidar,"Naubad, Bidar - KSPCB","29-03-2025 16:00:00",17.930306,77.482194,PM10,NA,NA,NA
India,Karnataka,Bidar,"Naubad, Bidar - KSPCB","29-03-2025 16:00:00",17.930306,77.482194,NO2,NA,NA,NA
India,Karnataka,Chamarajanagar,"Urban, Chamarajanagar - KSPCB","29-03-2025 16:00:00",11.55358,76.55521,PM10,44,65,49
India,Karnataka,Bengaluru,"Kasturi Nagar, Bengaluru - KSPCB","29-03-2025 16:00:00",13.003872,77.664217,NH3,3,4,3
India,Karnataka,Bengaluru,"Peenya, Bengaluru - CPCB","29-03-2025 16:00:00",13.0270199,77.494094,NO2,17,23,20
India,Karnataka,Bengaluru,"Peenya, Bengaluru - CPCB","29-03-2025 16:00:00",13.0270199,77.494094,SO2,3,37,9
India,Karnataka,Bengaluru,"Sanegurava Halli, Bengaluru - KSPCB","29-03-2025 16:00:00",12.990328,77.5431385,PM10,38,38,38
India,Karnataka,Bengaluru,"Sanegurava Halli, Bengaluru - KSPCB","29-03-2025 16:00:00",12.990328,77.5431385,CO,23,68,35
India,"Himachal Pradesh",Baddi,"HIMUDA Complex Phase-1, Baddi - HPPCB","29-03-2025 16:00:00",30.943887,76.801991,NO2,8,40,20
India,"Himachal Pradesh",Baddi,"HIMUDA Complex Phase-1, Baddi - HPPCB","29-03-2025 16:00:00",30.943887,76.801991,NH3,4,6,4
India,"Himachal Pradesh",Baddi,"HIMUDA Complex Phase-1, Baddi - HPPCB","29-03-2025 16:00:00",30.943887,76.801991,CO,31,57,43
India,Jharkhand,Dhanbad,"Sardar Patel Nagar, Dhanbad - JSPCB","29-03-2025 16:00:00",23.80569,86.44268,OZONE,16,45,34
India,Delhi,Delhi,"Wazirpur, Delhi - DPCC","29-03-2025 16:00:00",28.699793,77.165453,PM2.5,45,150,79
India,Delhi,Delhi,"Wazirpur, Delhi - DPCC","29-03-2025 16:00:00",28.699793,77.165453,NO2,28,65,41
India,Gujarat,Ahmedabad,"Chandkheda, Ahmedabad - IITM","29-03-2025 16:00:00",23.107969,72.574648,CO,19,43,29
India,Gujarat,Ahmedabad,"Gyaspur, Ahmedabad - IITM","29-03-2025 16:00:00",22.977134,72.553024,SO2,6,115,46
India,Kerala,Eloor,"Udyogamandal, Eloor - Kerala PCB","29-03-2025 16:00:00",10.073232,76.302765,NO2,6,8,8
India,Kerala,Kannur,"Thavakkara, Kannur - Kerala PCB","29-03-2025 16:00:00",11.875000,75.373200,PM2.5,45,53,49
India,Kerala,Kannur,"Thavakkara, Kannur - Kerala PCB","29-03-2025 16:00:00",11.875000,75.373200,PM10,49,58,54
India,Kerala,Kannur,"Thavakkara, Kannur - Kerala PCB","29-03-2025 16:00:00",11.875000,75.373200,NO2,13,16,15
